{
"type": "FeatureCollection",
"name": "Dialysis_Centers_Brays_Buffer_2miles_EPSG4326",
"crs": { "type": "name", "properties": { "name": "urn:ogc:def:crs:OGC:1.3:CRS84" } },
"features": [
{ "type": "Feature", "properties": { "X": 29.66763, "Y": -95.629314, "Name": "Use Me After That", "Address": "123 Mockingbird LN", "City": "SUGAR LAND", "State": "TX", "Zip": 77498, "formated_phone": "Please call patient admission line", "Status": "open", "Icon": "small_green", "Type": "Dialysis Center" }, "geometry": { "type": "Point", "coordinates": [ -95.629314, 29.66763 ] } },
{ "type": "Feature", "properties": { "X": 29.704422, "Y": -95.640557, "Name": "Bellaire Dialysis", "Address": "14412 Bellaire Blvd.", "City": "SUGAR LAND", "State": "TX", "Zip": 77478, "formated_phone": "Please call patient admission line", "Status": "open", "Icon": "small_green", "Type": "Dialysis Center" }, "geometry": { "type": "Point", "coordinates": [ -95.640557, 29.704422 ] } },
{ "type": "Feature", "properties": { "X": 29.700228, "Y": -95.554552, "Name": "DSI Chinatown Hemodialysis, LLC", "Address": "7329 W Houston Parkway S, Suite 101B", "City": "HOUSTON", "State": "TX", "Zip": 77072, "formated_phone": "Please call patient admission line", "Status": "open", "Icon": "small_green", "Type": "Dialysis Center" }, "geometry": { "type": "Point", "coordinates": [ -95.554552, 29.700228 ] } },
{ "type": "Feature", "properties": { "X": 29.700228, "Y": -95.554552, "Name": "DSI Chinatown Home, LLC", "Address": "7329 W Houston Parkway S", "City": "HOUSTON", "State": "TX", "Zip": 77072, "formated_phone": "Please call patient admission line", "Status": "open", "Icon": "small_green", "Type": "Dialysis Center" }, "geometry": { "type": "Point", "coordinates": [ -95.554552, 29.700228 ] } },
{ "type": "Feature", "properties": { "X": 29.664876, "Y": -95.525861, "Name": "FRESENIUS MEDICAL CARE SOUTHWEST HOUSTON DIALYSIS CENTER", "Address": "8303 CREEK BEND", "City": "HOUSTON", "State": "TX", "Zip": 77071, "formated_phone": "Please call patient admission line", "Status": "open", "Icon": "small_green", "Type": "Dialysis Center" }, "geometry": { "type": "Point", "coordinates": [ -95.525861, 29.664876 ] } },
{ "type": "Feature", "properties": { "X": 29.670145, "Y": -95.461293, "Name": "FMC MEYERLAND", "Address": "10311 SOUTH POST OAK", "City": "HOUSTON", "State": "TX", "Zip": 77035, "formated_phone": "Please call patient admission line", "Status": "open", "Icon": "small_green", "Type": "Dialysis Center" }, "geometry": { "type": "Point", "coordinates": [ -95.461293, 29.670145 ] } },
{ "type": "Feature", "properties": { "X": 29.724323, "Y": -95.60428, "Name": "DaVita Dairy Ashford Dialysis", "Address": "12606 West Park Drive", "City": "HOUSTON", "State": "TX", "Zip": 77082, "formated_phone": "Please call patient admission line", "Status": "open", "Icon": "small_green", "Type": "Dialysis Center" }, "geometry": { "type": "Point", "coordinates": [ -95.60428, 29.724323 ] } },
{ "type": "Feature", "properties": { "X": 29.629788, "Y": -95.55171, "Name": "QUALITY DIALYSIS TWO, INC", "Address": "13311 PIKE ROAD", "City": "STAFFORD", "State": "TX", "Zip": 77477, "formated_phone": "Please call patient admission line", "Status": "open", "Icon": "small_green", "Type": "Dialysis Center" }, "geometry": { "type": "Point", "coordinates": [ -95.55171, 29.629788 ] } },
{ "type": "Feature", "properties": { "X": 29.744368, "Y": -95.367065, "Name": "DOWNTOWN HOUSTON DIALYSIS CENTER", "Address": "2207 CRAWFORD ST", "City": "HOUSTON", "State": "TX", "Zip": 77002, "formated_phone": "Please call patient admission line", "Status": "open", "Icon": "small_green", "Type": "Dialysis Center" }, "geometry": { "type": "Point", "coordinates": [ -95.367065, 29.744368 ] } },
{ "type": "Feature", "properties": { "X": 29.700672, "Y": -95.644577, "Name": "FRESENIUS MEDICAL CARE MISSION BEND", "Address": "6886 HIGHWAY 6 SOUTH", "City": "HOUSTON", "State": "TX", "Zip": 77083, "formated_phone": "Please call patient admission line", "Status": "open", "Icon": "small_green", "Type": "Dialysis Center" }, "geometry": { "type": "Point", "coordinates": [ -95.644577, 29.700672 ] } },
{ "type": "Feature", "properties": { "X": 29.734087, "Y": -95.651859, "Name": "WEST OAKS DIALYSIS CENTER", "Address": "14800 WESTHEIMER ROAD", "City": "HOUSTON", "State": "TX", "Zip": 77082, "formated_phone": "Please call patient admission line", "Status": "open", "Icon": "small_green", "Type": "Dialysis Center" }, "geometry": { "type": "Point", "coordinates": [ -95.651859, 29.734087 ] } },
{ "type": "Feature", "properties": { "X": 29.693358, "Y": -95.412427, "Name": "FRESENIUS MEDICAL CARE TEXAS MEDICAL CENTER HOME", "Address": "1333 OLD SPANISH TRAIL", "City": "HOUSTON", "State": "TX", "Zip": 77054, "formated_phone": "Please call patient admission line", "Status": "open", "Icon": "small_green", "Type": "Dialysis Center" }, "geometry": { "type": "Point", "coordinates": [ -95.412427, 29.693358 ] } },
{ "type": "Feature", "properties": { "X": 29.714052, "Y": -95.396173, "Name": "CHILDREN'S MEMORIAL HERMANN DIALYSIS CENTER", "Address": "6411 FANNIN ST", "City": "HOUSTON", "State": "TX", "Zip": 77030, "formated_phone": "Please call patient admission line", "Status": "open", "Icon": "small_green", "Type": "Dialysis Center" }, "geometry": { "type": "Point", "coordinates": [ -95.396173, 29.714052 ] } },
{ "type": "Feature", "properties": { "X": 29.706807, "Y": -95.401732, "Name": "TEXAS CHILDRENS HOSPITAL DIALYSIS UNIT", "Address": "6621 FANNIN STE WT 8-100", "City": "HOUSTON", "State": "TX", "Zip": 77030, "formated_phone": "Please call patient admission line", "Status": "open", "Icon": "small_green", "Type": "Dialysis Center" }, "geometry": { "type": "Point", "coordinates": [ -95.401732, 29.706807 ] } },
{ "type": "Feature", "properties": { "X": 29.715679, "Y": -95.506009, "Name": "FRESENIUS MEDICAL CARE FONDREN", "Address": "7011 REGENCY SQUARE BLVD", "City": "HOUSTON", "State": "TX", "Zip": 77036, "formated_phone": "Please call patient admission line", "Status": "open", "Icon": "small_green", "Type": "Dialysis Center" }, "geometry": { "type": "Point", "coordinates": [ -95.506009, 29.715679 ] } },
{ "type": "Feature", "properties": { "X": 29.719554, "Y": -95.380271, "Name": "MED CENTER DIALYSIS", "Address": "5610 ALMEDA ROAD", "City": "HOUSTON", "State": "TX", "Zip": 77004, "formated_phone": "Please call patient admission line", "Status": "open", "Icon": "small_green", "Type": "Dialysis Center" }, "geometry": { "type": "Point", "coordinates": [ -95.380271, 29.719554 ] } },
{ "type": "Feature", "properties": { "X": 29.681356, "Y": -95.38961, "Name": "HOUSTON DIALYSIS", "Address": "900 SOUTH LOOP WEST STE. 100", "City": "HOUSTON", "State": "TX", "Zip": 77054, "formated_phone": "Please call patient admission line", "Status": "open", "Icon": "small_green", "Type": "Dialysis Center" }, "geometry": { "type": "Point", "coordinates": [ -95.38961, 29.681356 ] } },
{ "type": "Feature", "properties": { "X": 29.668778, "Y": -95.413793, "Name": "OMNI DIALYSIS  CENTER", "Address": "9350 KIRBY DRIVE   #110", "City": "HOUSTON", "State": "TX", "Zip": 77054, "formated_phone": "Please call patient admission line", "Status": "open", "Icon": "small_green", "Type": "Dialysis Center" }, "geometry": { "type": "Point", "coordinates": [ -95.413793, 29.668778 ] } },
{ "type": "Feature", "properties": { "X": 29.740354, "Y": -95.304711, "Name": "CENTRAL HOUSTON DIALYSIS", "Address": "610 SOUTH  WAYSIDE", "City": "HOUSTON", "State": "TX", "Zip": 77011, "formated_phone": "Please call patient admission line", "Status": "open", "Icon": "small_green", "Type": "Dialysis Center" }, "geometry": { "type": "Point", "coordinates": [ -95.304711, 29.740354 ] } },
{ "type": "Feature", "properties": { "X": 29.691304, "Y": -95.409723, "Name": "RELIANT DIALYSIS", "Address": "1335 LA CONCHA", "City": "HOUSTON", "State": "TX", "Zip": 77054, "formated_phone": "Please call patient admission line", "Status": "open", "Icon": "small_green", "Type": "Dialysis Center" }, "geometry": { "type": "Point", "coordinates": [ -95.409723, 29.691304 ] } },
{ "type": "Feature", "properties": { "X": 29.734991, "Y": -95.593828, "Name": "WESTMINSTER DIALYSIS", "Address": "12121 WESTHEIMER  RD   STE 138", "City": "HOUSTON", "State": "TX", "Zip": 77077, "formated_phone": "Please call patient admission line", "Status": "open", "Icon": "small_green", "Type": "Dialysis Center" }, "geometry": { "type": "Point", "coordinates": [ -95.593828, 29.734991 ] } },
{ "type": "Feature", "properties": { "X": 29.734954, "Y": -95.305884, "Name": "FMC EAST CENTRAL HOUSTON", "Address": "6830 CAPITOL ST", "City": "HOUSTON", "State": "TX", "Zip": 77011, "formated_phone": "Please call patient admission line", "Status": "open", "Icon": "small_green", "Type": "Dialysis Center" }, "geometry": { "type": "Point", "coordinates": [ -95.305884, 29.734954 ] } },
{ "type": "Feature", "properties": { "X": 29.705685, "Y": -95.386197, "Name": "MEDICAL CENTER KIDNEY CLINIC", "Address": "2254 HOLCOMBE BLVD", "City": "HOUSTON", "State": "TX", "Zip": 77030, "formated_phone": "Please call patient admission line", "Status": "open", "Icon": "small_green", "Type": "Dialysis Center" }, "geometry": { "type": "Point", "coordinates": [ -95.386197, 29.705685 ] } },
{ "type": "Feature", "properties": { "X": 29.671514, "Y": -95.561403, "Name": "HOUSTON KIDNEY CTR SOUTHWEST", "Address": "9980 WEST SAM HOUSTON PKWY SOUTH", "City": "HOUSTON", "State": "TX", "Zip": 77099, "formated_phone": "Please call patient admission line", "Status": "open", "Icon": "small_green", "Type": "Dialysis Center" }, "geometry": { "type": "Point", "coordinates": [ -95.561403, 29.671514 ] } },
{ "type": "Feature", "properties": { "X": 29.748395, "Y": -95.36838, "Name": "US RENAL CARE WEBSTER DIALYSIS", "Address": "1914 Caroline Street", "City": "HOUSTON", "State": "TX", "Zip": 77002, "formated_phone": "Please call patient admission line", "Status": "open", "Icon": "small_green", "Type": "Dialysis Center" }, "geometry": { "type": "Point", "coordinates": [ -95.36838, 29.748395 ] } },
{ "type": "Feature", "properties": { "X": 29.682038, "Y": -95.403048, "Name": "US RENAL CARE HOME THERAPIES", "Address": "8515 Fannin Street", "City": "HOUSTON", "State": "TX", "Zip": 77054, "formated_phone": "Please call patient admission line", "Status": "open", "Icon": "small_green", "Type": "Dialysis Center" }, "geometry": { "type": "Point", "coordinates": [ -95.403048, 29.682038 ] } },
{ "type": "Feature", "properties": { "X": 29.683332, "Y": -95.378601, "Name": "SNG - SOHUM SOUTHEAST HOUSTON DIALYSIS CENTER LP", "Address": "7647 SOUTH FREEWAY", "City": "HOUSTON", "State": "TX", "Zip": 77021, "formated_phone": "Please call patient admission line", "Status": "open", "Icon": "small_green", "Type": "Dialysis Center" }, "geometry": { "type": "Point", "coordinates": [ -95.378601, 29.683332 ] } },
{ "type": "Feature", "properties": { "X": 29.621953, "Y": -95.598438, "Name": "SUGARLAND DIALYSIS", "Address": "13855 SOUTHWEST FREEWAY", "City": "SUGAR LAND", "State": "TX", "Zip": 77478, "formated_phone": "Please call patient admission line", "Status": "open", "Icon": "small_green", "Type": "Dialysis Center" }, "geometry": { "type": "Point", "coordinates": [ -95.598438, 29.621953 ] } },
{ "type": "Feature", "properties": { "X": 29.692416, "Y": -95.530665, "Name": "BEECHNUT DIALYSIS", "Address": "8325 Beechnut", "City": "HOUSTON", "State": "TX", "Zip": 77036, "formated_phone": "Please call patient admission line", "Status": "open", "Icon": "small_green", "Type": "Dialysis Center" }, "geometry": { "type": "Point", "coordinates": [ -95.530665, 29.692416 ] } },
{ "type": "Feature", "properties": { "X": 29.691877, "Y": -95.328975, "Name": "DAVITA PHYSICIANS DIALYSIS SOUTH HOUSTON", "Address": "5989 SOUTH LOOP EAST", "City": "HOUSTON", "State": "TX", "Zip": 77033, "formated_phone": "Please call patient admission line", "Status": "open", "Icon": "small_green", "Type": "Dialysis Center" }, "geometry": { "type": "Point", "coordinates": [ -95.328975, 29.691877 ] } },
{ "type": "Feature", "properties": { "X": 29.731286, "Y": -95.361798, "Name": "RIVERSIDE DIALYSIS CENTER", "Address": "3315 DELANO STREET", "City": "HOUSTON", "State": "TX", "Zip": 77004, "formated_phone": "Please call patient admission line", "Status": "open", "Icon": "small_green", "Type": "Dialysis Center" }, "geometry": { "type": "Point", "coordinates": [ -95.361798, 29.731286 ] } },
{ "type": "Feature", "properties": { "X": 29.743011, "Y": -95.348516, "Name": "SUMMIT DIALYSIS", "Address": "3150 POLK STREET", "City": "HOUSTON", "State": "TX", "Zip": 77003, "formated_phone": "Please call patient admission line", "Status": "open", "Icon": "small_green", "Type": "Dialysis Center" }, "geometry": { "type": "Point", "coordinates": [ -95.348516, 29.743011 ] } },
{ "type": "Feature", "properties": { "X": 29.733468, "Y": -95.391968, "Name": "FRESENIUS MEDICAL CARE MUSEUM DISTRICT", "Address": "4407 YOAKUM BLVD", "City": "HOUSTON", "State": "TX", "Zip": 77006, "formated_phone": "Please call patient admission line", "Status": "open", "Icon": "small_green", "Type": "Dialysis Center" }, "geometry": { "type": "Point", "coordinates": [ -95.391968, 29.733468 ] } },
{ "type": "Feature", "properties": { "X": 29.67727, "Y": -95.410486, "Name": "FRESENIUS MEDICAL CARE HOUSTON HOME LLC", "Address": "9001 Kirby Drive", "City": "Houston", "State": "TX", "Zip": 77054, "formated_phone": "Please call patient admission line", "Status": "open", "Icon": "small_green", "Type": "Dialysis Center" }, "geometry": { "type": "Point", "coordinates": [ -95.410486, 29.67727 ] } },
{ "type": "Feature", "properties": { "X": 29.669088, "Y": -95.354046, "Name": "FMC SUNNYSIDE", "Address": "8340 COFFEE", "City": "HOUSTON", "State": "TX", "Zip": 77033, "formated_phone": "Please call patient admission line", "Status": "open", "Icon": "small_green", "Type": "Dialysis Center" }, "geometry": { "type": "Point", "coordinates": [ -95.354046, 29.669088 ] } },
{ "type": "Feature", "properties": { "X": 29.693378, "Y": -95.401139, "Name": "MED CENTER AT HOME", "Address": "7580 FANNIN STREET, SUITE 230", "City": "HOUSTON", "State": "TX", "Zip": 77054, "formated_phone": "Please call patient admission line", "Status": "open", "Icon": "small_green", "Type": "Dialysis Center" }, "geometry": { "type": "Point", "coordinates": [ -95.401139, 29.693378 ] } },
{ "type": "Feature", "properties": { "X": 29.699942, "Y": -95.35991, "Name": "BAYLOR COLLEGE OF MEDICINE-SCOTT STREET DIALYSIS", "Address": "6120 SCOTT STREET, SUITE F", "City": "HOUSTON", "State": "TX", "Zip": 77021, "formated_phone": "Please call patient admission line", "Status": "open", "Icon": "small_green", "Type": "Dialysis Center" }, "geometry": { "type": "Point", "coordinates": [ -95.35991, 29.699942 ] } },
{ "type": "Feature", "properties": { "X": 29.700178, "Y": -95.40963, "Name": "Marsher Dialysis LLC", "Address": "7505 S MAIN", "City": "HOUSTON", "State": "TX", "Zip": 77030, "formated_phone": "Please call patient admission line", "Status": "open", "Icon": "small_green", "Type": "Dialysis Center" }, "geometry": { "type": "Point", "coordinates": [ -95.40963, 29.700178 ] } },
{ "type": "Feature", "properties": { "X": 29.717861, "Y": -95.484971, "Name": "Renal Treatment Centers Southeast, LP", "Address": "5920 RENWICK DR STE A", "City": "HOUSTON", "State": "TX", "Zip": 77081, "formated_phone": "Please call patient admission line", "Status": "open", "Icon": "small_green", "Type": "Dialysis Center" }, "geometry": { "type": "Point", "coordinates": [ -95.484971, 29.717861 ] } },
{ "type": "Feature", "properties": { "X": 29.716233, "Y": -95.497399, "Name": "SNG - HILLCROFT DIALYSIS CENTER", "Address": "6015 HILLCROFT, SUITE 3000", "City": "HOUSTON", "State": "TX", "Zip": 77081, "formated_phone": "Please call patient admission line", "Status": "open", "Icon": "small_green", "Type": "Dialysis Center" }, "geometry": { "type": "Point", "coordinates": [ -95.497399, 29.716233 ] } },
{ "type": "Feature", "properties": { "X": 29.644003, "Y": -95.565885, "Name": "Aqua Dialysis Fort Bend LLC", "Address": "12220 MURPHY RD STE R", "City": "STAFFORD", "State": "TX", "Zip": 77477, "formated_phone": "Please call patient admission line", "Status": "open", "Icon": "small_green", "Type": "Dialysis Center" }, "geometry": { "type": "Point", "coordinates": [ -95.565885, 29.644003 ] } },
{ "type": "Feature", "properties": { "X": 29.685891, "Y": -95.529546, "Name": "Bio-Medical Applications of Texas, Inc.", "Address": "8700 S GESSNER", "City": "HOUSTON", "State": "TX", "Zip": 77074, "formated_phone": "Please call patient admission line", "Status": "open", "Icon": "small_green", "Type": "Dialysis Center" }, "geometry": { "type": "Point", "coordinates": [ -95.529546, 29.685891 ] } },
{ "type": "Feature", "properties": { "X": 29.685342, "Y": -95.509688, "Name": "SNG BELLAIRE DIALYSIS CENTER LP", "Address": "7243 BISSONNET STREET", "City": "HOUSTON", "State": "TX", "Zip": 77074, "formated_phone": "Please call patient admission line", "Status": "open", "Icon": "small_green", "Type": "Dialysis Center" }, "geometry": { "type": "Point", "coordinates": [ -95.509688, 29.685342 ] } },
{ "type": "Feature", "properties": { "X": 29.7233, "Y": -95.388443, "Name": "DAVITA-BINZ HOME TRAINING", "Address": "1213 HERMAN DRIVE, SUITE 180", "City": "HOUSTON", "State": "TX", "Zip": 77004, "formated_phone": "Please call patient admission line", "Status": "open", "Icon": "small_green", "Type": "Dialysis Center" }, "geometry": { "type": "Point", "coordinates": [ -95.388443, 29.7233 ] } },
{ "type": "Feature", "properties": { "X": 29.697149, "Y": -95.415306, "Name": "DIALYSPA MEDICAL CENTER, LLC.", "Address": "2453 SOUTH BRAESWOOD BLVD", "City": "HOUSTON", "State": "TX", "Zip": 77030, "formated_phone": "Please call patient admission line", "Status": "open", "Icon": "small_green", "Type": "Dialysis Center" }, "geometry": { "type": "Point", "coordinates": [ -95.415306, 29.697149 ] } },
{ "type": "Feature", "properties": { "X": 29.634416, "Y": -95.567488, "Name": "GLOBAL DIALYSIS PLUS INC", "Address": "12823 CAPRICORN DRIVE", "City": "STAFFORD", "State": "TX", "Zip": 77477, "formated_phone": "Please call patient admission line", "Status": "open", "Icon": "small_green", "Type": "Dialysis Center" }, "geometry": { "type": "Point", "coordinates": [ -95.567488, 29.634416 ] } },
{ "type": "Feature", "properties": { "X": 29.724096, "Y": -95.591068, "Name": "WEST POINT DIALYSIS", "Address": "12051 WESTPARK DRIVE", "City": "HOUSTON", "State": "TX", "Zip": 77082, "formated_phone": "Please call patient admission line", "Status": "open", "Icon": "small_green", "Type": "Dialysis Center" }, "geometry": { "type": "Point", "coordinates": [ -95.591068, 29.724096 ] } },
{ "type": "Feature", "properties": { "X": 29.704232, "Y": -95.359163, "Name": "CLUTCH CITY DIALYSIS CENTER", "Address": "5910 SCOTT STREET", "City": "HOUSTON", "State": "TX", "Zip": 77021, "formated_phone": "Please call patient admission line", "Status": "open", "Icon": "small_green", "Type": "Dialysis Center" }, "geometry": { "type": "Point", "coordinates": [ -95.359163, 29.704232 ] } },
{ "type": "Feature", "properties": { "X": 29.737456, "Y": -95.486679, "Name": "HOUSTON GALLERIA DIALYSIS", "Address": "5923 WESTHEIMER RD", "City": "HOUSTON", "State": "TX", "Zip": 77057, "formated_phone": "Please call patient admission line", "Status": "open", "Icon": "small_green", "Type": "Dialysis Center" }, "geometry": { "type": "Point", "coordinates": [ -95.486679, 29.737456 ] } },
{ "type": "Feature", "properties": { "X": 29.708028, "Y": -95.475061, "Name": "KEY CHOICE LLC", "Address": "5420 DASHWOOD DR STE 207", "City": "HOUSTON", "State": "TX", "Zip": 77081, "formated_phone": "Please call patient admission line", "Status": "open", "Icon": "small_green", "Type": "Dialysis Center" }, "geometry": { "type": "Point", "coordinates": [ -95.475061, 29.708028 ] } },
{ "type": "Feature", "properties": { "X": 29.74601, "Y": -95.366362, "Name": "SEASONS DIALYSIS", "Address": "2000 CRAWFORD STREET", "City": "HOUSTON", "State": "TX", "Zip": 77002, "formated_phone": "Please call patient admission line", "Status": "open", "Icon": "small_green", "Type": "Dialysis Center" }, "geometry": { "type": "Point", "coordinates": [ -95.366362, 29.74601 ] } },
{ "type": "Feature", "properties": { "X": 29.709566, "Y": -95.463032, "Name": "Kidney Care Center of Houston", "Address": "4803 Bissonnet Street", "City": "BELLAIRE", "State": "TX", "Zip": 77401, "formated_phone": "Please call patient admission line", "Status": "open", "Icon": "small_green", "Type": "Dialysis Center" }, "geometry": { "type": "Point", "coordinates": [ -95.463032, 29.709566 ] } },
{ "type": "Feature", "properties": { "X": 29.681843, "Y": -95.439788, "Name": "USRC West University, LLC", "Address": "9219 Stella Link", "City": "HOUSTON", "State": "TX", "Zip": 77025, "formated_phone": "Please call patient admission line", "Status": "open", "Icon": "small_green", "Type": "Dialysis Center" }, "geometry": { "type": "Point", "coordinates": [ -95.439788, 29.681843 ] } },
{ "type": "Feature", "properties": { "X": 29.705198, "Y": -95.534059, "Name": "DaVita Avian Dialysis", "Address": "8486 Bellaire Blvd.", "City": "HOUSTON", "State": "TX", "Zip": 77036, "formated_phone": "Please call patient admission line", "Status": "open", "Icon": "small_green", "Type": "Dialysis Center" }, "geometry": { "type": "Point", "coordinates": [ -95.534059, 29.705198 ] } },
{ "type": "Feature", "properties": { "X": 29.700295, "Y": -95.297718, "Name": "Gulfgate Kidney Center", "Address": "2916 Woodridge Drive", "City": "HOUSTON", "State": "TX", "Zip": 77087, "formated_phone": "Please call patient admission line", "Status": "open", "Icon": "small_green", "Type": "Dialysis Center" }, "geometry": { "type": "Point", "coordinates": [ -95.297718, 29.700295 ] } },
{ "type": "Feature", "properties": { "X": 29.690109, "Y": -95.407325, "Name": "Premier Dialysis-DSI, LLC", "Address": "8181 N Stadium Drive", "City": "HOUSTON", "State": "TX", "Zip": 77054, "formated_phone": "Please call patient admission line", "Status": "open", "Icon": "small_green", "Type": "Dialysis Center" }, "geometry": { "type": "Point", "coordinates": [ -95.407325, 29.690109 ] } },
{ "type": "Feature", "properties": { "X": 29.600683, "Y": -95.580408, "Name": "Meadows Place Dialysis-DSI, LLC", "Address": "4743 Lexington Blvd", "City": "MISSOURI CITY", "State": "TX", "Zip": 77459, "formated_phone": "Please call patient admission line", "Status": "open", "Icon": "small_green", "Type": "Dialysis Center" }, "geometry": { "type": "Point", "coordinates": [ -95.580408, 29.600683 ] } },
{ "type": "Feature", "properties": { "X": 29.624844, "Y": -95.598966, "Name": "Dialyspa IV, LLC", "Address": "13444 SOUTHWEST FWY STE 1B", "City": "SUGAR LAND", "State": "TX", "Zip": 77478, "formated_phone": "Please call patient admission line", "Status": "open", "Icon": "small_green", "Type": "Dialysis Center" }, "geometry": { "type": "Point", "coordinates": [ -95.598966, 29.624844 ] } },
{ "type": "Feature", "properties": { "X": 29.705294, "Y": -95.460045, "Name": "Dialyspa VI, LLC", "Address": "6800 W Loop South", "City": "BELLAIRE", "State": "TX", "Zip": 77401, "formated_phone": "Please call patient admission line", "Status": "open", "Icon": "small_green", "Type": "Dialysis Center" }, "geometry": { "type": "Point", "coordinates": [ -95.460045, 29.705294 ] } },
{ "type": "Feature", "properties": { "X": 29.620471, "Y": -95.569078, "Name": "DIAMOND DIALYSIS - STAFFORD TEXAS LLC", "Address": "3623 SOUTH MAIN STREET STE 100", "City": "Stafford", "State": "TX", "Zip": 77477, "formated_phone": "Please call patient admission line", "Status": "open", "Icon": "small_green", "Type": "Dialysis Center" }, "geometry": { "type": "Point", "coordinates": [ -95.569078, 29.620471 ] } },
{ "type": "Feature", "properties": { "X": 29.698544, "Y": -95.410137, "Name": "Local Health Specialty - Houston", "Address": "7515 Main St Ste 160", "City": "Houston", "State": "TX", "Zip": 770304500, "formated_phone": "281-306-6086", "Status": "not participating", "Icon": "measle_white", "Type": "Pharmacy" }, "geometry": { "type": "Point", "coordinates": [ -95.410137, 29.698544 ] } },
{ "type": "Feature", "properties": { "X": 29.70193, "Y": -95.358823, "Name": "WALGREENS #11465", "Address": "3822 Old Spanish Trl", "City": "HOUSTON", "State": "TX", "Zip": 770211340, "formated_phone": "713-741-7323", "Status": "open", "Icon": "small_green", "Type": "Pharmacy" }, "geometry": { "type": "Point", "coordinates": [ -95.358823, 29.70193 ] } },
{ "type": "Feature", "properties": { "X": 29.714651, "Y": -95.295401, "Name": "WALGREENS #3095", "Address": "6895 Griggs Rd", "City": "HOUSTON", "State": "TX", "Zip": 770234316, "formated_phone": "713-921-2166", "Status": "open", "Icon": "small_green", "Type": "Pharmacy" }, "geometry": { "type": "Point", "coordinates": [ -95.295401, 29.714651 ] } },
{ "type": "Feature", "properties": { "X": 29.663488, "Y": -95.464918, "Name": "WALGREENS #4316", "Address": "10800 S POST OAK RD", "City": "HOUSTON", "State": "TX", "Zip": 770353102, "formated_phone": "713-723-4774", "Status": "open", "Icon": "small_green", "Type": "Pharmacy" }, "geometry": { "type": "Point", "coordinates": [ -95.464918, 29.663488 ] } },
{ "type": "Feature", "properties": { "X": 29.722032, "Y": -95.442313, "Name": "WALGREENS #489", "Address": "5560 WESLAYAN ST", "City": "HOUSTON", "State": "TX", "Zip": 770051942, "formated_phone": "713-667-9349", "Status": "open", "Icon": "small_green", "Type": "Pharmacy" }, "geometry": { "type": "Point", "coordinates": [ -95.442313, 29.722032 ] } },
{ "type": "Feature", "properties": { "X": 29.718062, "Y": -95.539907, "Name": "HOLMAN PHARMACY", "Address": "10000 A HARWIN", "City": "HOUSTON", "State": "TX", "Zip": 77036, "formated_phone": "713-776-3500", "Status": "not participating", "Icon": "measle_white", "Type": "Pharmacy" }, "geometry": { "type": "Point", "coordinates": [ -95.539907, 29.718062 ] } },
{ "type": "Feature", "properties": { "X": 29.753799, "Y": -95.405526, "Name": "KROGER PHARMACY", "Address": "1938 W GRAY ST", "City": "HOUSTON", "State": "TX", "Zip": 77019, "formated_phone": "713-521-2317", "Status": "not participating", "Icon": "measle_white", "Type": "Pharmacy" }, "geometry": { "type": "Point", "coordinates": [ -95.405526, 29.753799 ] } },
{ "type": "Feature", "properties": { "X": 29.658199, "Y": -95.355698, "Name": "WALGREENS #4605", "Address": "9200 CULLEN BLVD", "City": "HOUSTON", "State": "TX", "Zip": 770513317, "formated_phone": "713-733-2406", "Status": "open", "Icon": "small_green", "Type": "Pharmacy" }, "geometry": { "type": "Point", "coordinates": [ -95.355698, 29.658199 ] } },
{ "type": "Feature", "properties": { "X": 29.621065, "Y": -95.465574, "Name": "SOUTH POST OAK PHARMACY INC", "Address": "14206 S POST OAK RD", "City": "HOUSTON", "State": "TX", "Zip": 77045, "formated_phone": "713-433-7075", "Status": "not participating", "Icon": "measle_white", "Type": "Pharmacy" }, "geometry": { "type": "Point", "coordinates": [ -95.465574, 29.621065 ] } },
{ "type": "Feature", "properties": { "X": 29.692107, "Y": -95.439395, "Name": "WALGREENS #4328", "Address": "8413 STELLA LINK RD", "City": "HOUSTON", "State": "TX", "Zip": 770252915, "formated_phone": "713-666-8057", "Status": "open", "Icon": "small_green", "Type": "Pharmacy" }, "geometry": { "type": "Point", "coordinates": [ -95.439395, 29.692107 ] } },
{ "type": "Feature", "properties": { "X": 29.678298, "Y": -95.478514, "Name": "WALGREENS #553", "Address": "5300 N BRAESWOOD BLVD", "City": "HOUSTON", "State": "TX", "Zip": 770963307, "formated_phone": "713-721-1516", "Status": "open", "Icon": "small_green", "Type": "Pharmacy" }, "geometry": { "type": "Point", "coordinates": [ -95.478514, 29.678298 ] } },
{ "type": "Feature", "properties": { "X": 29.752701, "Y": -95.404059, "Name": "WALGREENS #3735", "Address": "1919 W Gray St", "City": "HOUSTON", "State": "TX", "Zip": 770194801, "formated_phone": "713-526-3621", "Status": "open", "Icon": "small_green", "Type": "Pharmacy" }, "geometry": { "type": "Point", "coordinates": [ -95.404059, 29.752701 ] } },
{ "type": "Feature", "properties": { "X": 29.70473, "Y": -95.585886, "Name": "KIM TAM PHARMACY", "Address": "11794 BELLAIRE BLVD", "City": "HOUSTON", "State": "TX", "Zip": 77072, "formated_phone": "281-498-5000", "Status": "open", "Icon": "small_green", "Type": "Pharmacy" }, "geometry": { "type": "Point", "coordinates": [ -95.585886, 29.70473 ] } },
{ "type": "Feature", "properties": { "X": 29.705266, "Y": -95.645539, "Name": "Express Pharmacy", "Address": "6730 HWY 6 S", "City": "HOUSTON", "State": "TX", "Zip": 77083, "formated_phone": "281-988-6000", "Status": "not participating", "Icon": "measle_white", "Type": "Pharmacy" }, "geometry": { "type": "Point", "coordinates": [ -95.645539, 29.705266 ] } },
{ "type": "Feature", "properties": { "X": 29.703405, "Y": -95.566701, "Name": "BELLAIRE DISCOUNT PHARMACY", "Address": "10515 BELLAIRE BLVD STE L", "City": "HOUSTON", "State": "TX", "Zip": 77072, "formated_phone": "281-568-1888", "Status": "open", "Icon": "small_green", "Type": "Pharmacy" }, "geometry": { "type": "Point", "coordinates": [ -95.566701, 29.703405 ] } },
{ "type": "Feature", "properties": { "X": 29.66763, "Y": -95.629314, "Name": "METSCRIPT PHARMACY", "Address": "4888 US-90 ALT STE 100", "City": "SUGAR LAND", "State": "TX", "Zip": 77498, "formated_phone": "281-277-2700", "Status": "unknown", "Icon": "small_yellow", "Type": "Pharmacy" }, "geometry": { "type": "Point", "coordinates": [ -95.629314, 29.66763 ] } },
{ "type": "Feature", "properties": { "X": 29.738666, "Y": -95.500394, "Name": "WALGREENS #15942", "Address": "6520 WESTHEIMER RD", "City": "HOUSTON", "State": "TX", "Zip": 770575102, "formated_phone": "713-781-4314", "Status": "open", "Icon": "small_green", "Type": "Pharmacy" }, "geometry": { "type": "Point", "coordinates": [ -95.500394, 29.738666 ] } },
{ "type": "Feature", "properties": { "X": 29.726439, "Y": -95.428355, "Name": "WALGREENS #4745", "Address": "5280 BUFFALO SPEEDWAY", "City": "HOUSTON", "State": "TX", "Zip": 770054204, "formated_phone": "713-838-7704", "Status": "open", "Icon": "small_green", "Type": "Pharmacy" }, "geometry": { "type": "Point", "coordinates": [ -95.428355, 29.726439 ] } },
{ "type": "Feature", "properties": { "X": 29.716724, "Y": -95.295398, "Name": "CVS Pharmacy #06239", "Address": "806 S 75TH ST", "City": "HOUSTON", "State": "TX", "Zip": 77023, "formated_phone": "713-926-8848", "Status": "open", "Icon": "small_green", "Type": "Pharmacy" }, "geometry": { "type": "Point", "coordinates": [ -95.295398, 29.716724 ] } },
{ "type": "Feature", "properties": { "X": 29.705301, "Y": -95.439684, "Name": "CVS Pharmacy #06240", "Address": "3939 BELLAIRE BLVD", "City": "HOUSTON", "State": "TX", "Zip": 77025, "formated_phone": "832-778-9025", "Status": "open", "Icon": "small_green", "Type": "Pharmacy" }, "geometry": { "type": "Point", "coordinates": [ -95.439684, 29.705301 ] } },
{ "type": "Feature", "properties": { "X": 29.743399, "Y": -95.330408, "Name": "CVS Pharmacy #06241", "Address": "4516 Harrisburg Blvd", "City": "HOUSTON", "State": "TX", "Zip": 770114016, "formated_phone": "713-224-6504", "Status": "open", "Icon": "small_green", "Type": "Pharmacy" }, "geometry": { "type": "Point", "coordinates": [ -95.330408, 29.743399 ] } },
{ "type": "Feature", "properties": { "X": 29.677117, "Y": -95.28954, "Name": "CVS Pharmacy #06242", "Address": "6161 TELEPHONE RD", "City": "HOUSTON", "State": "TX", "Zip": 77087, "formated_phone": "713-645-3354", "Status": "open", "Icon": "small_green", "Type": "Pharmacy" }, "geometry": { "type": "Point", "coordinates": [ -95.28954, 29.677117 ] } },
{ "type": "Feature", "properties": { "X": 29.754422, "Y": -95.605539, "Name": "CVS PHARMACY", "Address": "1339 S DAIRY ASHFORD", "City": "HOUSTON", "State": "TX", "Zip": 77077, "formated_phone": "281-493-3260", "Status": "open", "Icon": "small_green", "Type": "Pharmacy" }, "geometry": { "type": "Point", "coordinates": [ -95.605539, 29.754422 ] } },
{ "type": "Feature", "properties": { "X": 29.737946, "Y": -95.525544, "Name": "CVS PHARMACY", "Address": "9292 WESTHEIMER RD", "City": "HOUSTON", "State": "TX", "Zip": 77063, "formated_phone": "713-782-2421", "Status": "open", "Icon": "small_green", "Type": "Pharmacy" }, "geometry": { "type": "Point", "coordinates": [ -95.525544, 29.737946 ] } },
{ "type": "Feature", "properties": { "X": 29.717815, "Y": -95.294146, "Name": "CUNNINGHAM PHARMACY GULFBANK", "Address": "7101 LAWNDALE ST", "City": "HOUSTON", "State": "TX", "Zip": 77023, "formated_phone": "713-921-7500", "Status": "not participating", "Icon": "measle_white", "Type": "Pharmacy" }, "geometry": { "type": "Point", "coordinates": [ -95.294146, 29.717815 ] } },
{ "type": "Feature", "properties": { "X": 29.727256, "Y": -95.430878, "Name": "KROGER PHARMACY", "Address": "5150 BUFFALO SPEEDWAY", "City": "HOUSTON", "State": "TX", "Zip": 77005, "formated_phone": "713-661-0291", "Status": "not participating", "Icon": "measle_white", "Type": "Pharmacy" }, "geometry": { "type": "Point", "coordinates": [ -95.430878, 29.727256 ] } },
{ "type": "Feature", "properties": { "X": 29.675339, "Y": -95.479372, "Name": "WALMART PHARMACY 10-2718", "Address": "9555 S POST OAK RD", "City": "HOUSTON", "State": "TX", "Zip": 77096, "formated_phone": "713-551-9154", "Status": "open", "Icon": "small_green", "Type": "Pharmacy" }, "geometry": { "type": "Point", "coordinates": [ -95.479372, 29.675339 ] } },
{ "type": "Feature", "properties": { "X": 29.736381, "Y": -95.545332, "Name": "KROGER PHARMACY", "Address": "9919 WESTHEIMER ELMSIDE", "City": "HOUSTON", "State": "TX", "Zip": 77042, "formated_phone": "713-532-5858", "Status": "not participating", "Icon": "measle_white", "Type": "Pharmacy" }, "geometry": { "type": "Point", "coordinates": [ -95.545332, 29.736381 ] } },
{ "type": "Feature", "properties": { "X": 29.744766, "Y": -95.302785, "Name": "EAST END PHARMACY INC", "Address": "6802 NAVIGATION", "City": "HOUSTON", "State": "TX", "Zip": 770111453, "formated_phone": "713-923-5959", "Status": "open", "Icon": "small_green", "Type": "Pharmacy" }, "geometry": { "type": "Point", "coordinates": [ -95.302785, 29.744766 ] } },
{ "type": "Feature", "properties": { "X": 29.717877, "Y": -95.278749, "Name": "MARITIME PHARMACY", "Address": "900 BROADWAY ST 3740 Wroxton Rd.", "City": "HOUSTON", "State": "TX", "Zip": 77012, "formated_phone": "713-921-1052", "Status": "open", "Icon": "small_green", "Type": "Pharmacy" }, "geometry": { "type": "Point", "coordinates": [ -95.278749, 29.717877 ] } },
{ "type": "Feature", "properties": { "X": 29.71045, "Y": -95.493607, "Name": "PUBLIC PHARMACY", "Address": "6510 Hillcroft St Ste 100", "City": "HOUSTON", "State": "TX", "Zip": 77081, "formated_phone": "713-663-7800", "Status": "not participating", "Icon": "measle_white", "Type": "Pharmacy" }, "geometry": { "type": "Point", "coordinates": [ -95.493607, 29.71045 ] } },
{ "type": "Feature", "properties": { "X": 29.756162, "Y": -95.625589, "Name": "KROGER PHARMACY", "Address": "1520 ELDRIDGE", "City": "HOUSTON", "State": "TX", "Zip": 77077, "formated_phone": "281-496-7719", "Status": "not participating", "Icon": "measle_white", "Type": "Pharmacy" }, "geometry": { "type": "Point", "coordinates": [ -95.625589, 29.756162 ] } },
{ "type": "Feature", "properties": { "X": 29.677598, "Y": -95.643081, "Name": "WALGREENS #5965", "Address": "9350 HIGHWAY 6 S", "City": "HOUSTON", "State": "TX", "Zip": 77083, "formated_phone": "281-575-1839", "Status": "open", "Icon": "small_green", "Type": "Pharmacy" }, "geometry": { "type": "Point", "coordinates": [ -95.643081, 29.677598 ] } },
{ "type": "Feature", "properties": { "X": 29.740173, "Y": -95.52214, "Name": "VITA-CARE PHARMACY", "Address": "2500 FONDREN RD", "City": "HOUSTON", "State": "TX", "Zip": 77063, "formated_phone": "713-781-8675", "Status": "open", "Icon": "small_green", "Type": "Pharmacy" }, "geometry": { "type": "Point", "coordinates": [ -95.52214, 29.740173 ] } },
{ "type": "Feature", "properties": { "X": 29.689204, "Y": -95.526794, "Name": "JOSHUAS PHARMACY", "Address": "8200 WEDNESBURY LANE", "City": "HOUSTON", "State": "TX", "Zip": 77074, "formated_phone": "713-772-6014", "Status": "not participating", "Icon": "measle_white", "Type": "Pharmacy" }, "geometry": { "type": "Point", "coordinates": [ -95.526794, 29.689204 ] } },
{ "type": "Feature", "properties": { "X": 29.714464, "Y": -95.398, "Name": "HPB PHARMACY", "Address": "6410 FANNIN ST STE 116", "City": "HOUSTON", "State": "TX", "Zip": 77030, "formated_phone": "713-799-1472", "Status": "open", "Icon": "small_green", "Type": "Pharmacy" }, "geometry": { "type": "Point", "coordinates": [ -95.398, 29.714464 ] } },
{ "type": "Feature", "properties": { "X": 29.748196, "Y": -95.485176, "Name": "HEB PHARMACY", "Address": "5895 San Felipe St", "City": "HOUSTON", "State": "TX", "Zip": 77057, "formated_phone": "713-278-8474", "Status": "not participating", "Icon": "measle_white", "Type": "Pharmacy" }, "geometry": { "type": "Point", "coordinates": [ -95.485176, 29.748196 ] } },
{ "type": "Feature", "properties": { "X": 29.756602, "Y": -95.625819, "Name": "WALGREENS #5313", "Address": "1506 ELDRIDGE PKWY", "City": "HOUSTON", "State": "TX", "Zip": 770771759, "formated_phone": "281-558-4565", "Status": "open", "Icon": "small_green", "Type": "Pharmacy" }, "geometry": { "type": "Point", "coordinates": [ -95.625819, 29.756602 ] } },
{ "type": "Feature", "properties": { "X": 29.643539, "Y": -95.578335, "Name": "SAMS PHARMACY", "Address": "12300 S W FREEWAY", "City": "STAFFORD", "State": "TX", "Zip": 77477, "formated_phone": "281-295-2512", "Status": "open", "Icon": "small_green", "Type": "Pharmacy" }, "geometry": { "type": "Point", "coordinates": [ -95.578335, 29.643539 ] } },
{ "type": "Feature", "properties": { "X": 29.692836, "Y": -95.419149, "Name": "CVS Pharmacy #16676", "Address": "8500 Main St", "City": "HOUSTON", "State": "TX", "Zip": 77025, "formated_phone": "713-661-8213", "Status": "open", "Icon": "small_green", "Type": "Pharmacy" }, "geometry": { "type": "Point", "coordinates": [ -95.419149, 29.692836 ] } },
{ "type": "Feature", "properties": { "X": 29.6581, "Y": -95.57113, "Name": "RC2 Pharmacy", "Address": "11246 S Wilcrest Dr Ste 180", "City": "HOUSTON", "State": "TX", "Zip": 770994386, "formated_phone": "832-770-9905", "Status": "not participating", "Icon": "measle_white", "Type": "Pharmacy" }, "geometry": { "type": "Point", "coordinates": [ -95.57113, 29.6581 ] } },
{ "type": "Feature", "properties": { "X": 29.748324, "Y": -95.586306, "Name": "WALGREENS #5871", "Address": "1838 S KIRKWOOD RD", "City": "HOUSTON", "State": "TX", "Zip": 770775024, "formated_phone": "281-759-9347", "Status": "open", "Icon": "small_green", "Type": "Pharmacy" }, "geometry": { "type": "Point", "coordinates": [ -95.586306, 29.748324 ] } },
{ "type": "Feature", "properties": { "X": 29.674554, "Y": -95.554135, "Name": "BEMAJ PHARMACY INC", "Address": "10039 BISSONNET STE 100", "City": "HOUSTON", "State": "TX", "Zip": 77036, "formated_phone": "713-774-7200", "Status": "unknown", "Icon": "small_yellow", "Type": "Pharmacy" }, "geometry": { "type": "Point", "coordinates": [ -95.554135, 29.674554 ] } },
{ "type": "Feature", "properties": { "X": 29.738832, "Y": -95.537853, "Name": "WALGREENS #6484", "Address": "9600 WESTHEIMER RD", "City": "HOUSTON", "State": "TX", "Zip": 770633205, "formated_phone": "713-952-9916", "Status": "open", "Icon": "small_green", "Type": "Pharmacy" }, "geometry": { "type": "Point", "coordinates": [ -95.537853, 29.738832 ] } },
{ "type": "Feature", "properties": { "X": 29.692604, "Y": -95.510788, "Name": "CVS Pharmacy #03176", "Address": "7102 Beechnut St", "City": "HOUSTON", "State": "TX", "Zip": 77074, "formated_phone": "713-771-6652", "Status": "open", "Icon": "small_green", "Type": "Pharmacy" }, "geometry": { "type": "Point", "coordinates": [ -95.510788, 29.692604 ] } },
{ "type": "Feature", "properties": { "X": 29.732061, "Y": -95.467363, "Name": "CVS PHARMACY #03177", "Address": "5204 RICHMOND AVE", "City": "HOUSTON", "State": "TX", "Zip": 77056, "formated_phone": "713-961-0874", "Status": "open", "Icon": "small_green", "Type": "Pharmacy" }, "geometry": { "type": "Point", "coordinates": [ -95.467363, 29.732061 ] } },
{ "type": "Feature", "properties": { "X": 29.734706, "Y": -95.586916, "Name": "HEB PHARMACY", "Address": "11815 WESTHEIMER", "City": "HOUSTON", "State": "TX", "Zip": 77077, "formated_phone": "281-497-8479", "Status": "not participating", "Icon": "measle_white", "Type": "Pharmacy" }, "geometry": { "type": "Point", "coordinates": [ -95.586916, 29.734706 ] } },
{ "type": "Feature", "properties": { "X": 29.687427, "Y": -95.586076, "Name": "WALMART PHARMACY 10-3509", "Address": "11755 BEECHNUT STREET", "City": "HOUSTON", "State": "TX", "Zip": 77072, "formated_phone": "832-328-1653", "Status": "open", "Icon": "small_green", "Type": "Pharmacy" }, "geometry": { "type": "Point", "coordinates": [ -95.586076, 29.687427 ] } },
{ "type": "Feature", "properties": { "X": 29.656775, "Y": -95.529479, "Name": "WALMART PHARMACY 10-3542", "Address": "11242 S GESSNER RD", "City": "HOUSTON", "State": "TX", "Zip": 77071, "formated_phone": "713-771-8316", "Status": "open", "Icon": "small_green", "Type": "Pharmacy" }, "geometry": { "type": "Point", "coordinates": [ -95.529479, 29.656775 ] } },
{ "type": "Feature", "properties": { "X": 29.73342, "Y": -95.591463, "Name": "WALMART PHARMACY 10-3296", "Address": "2700 S KIRKWOOD RD", "City": "HOUSTON", "State": "TX", "Zip": 77077, "formated_phone": "281-558-5703", "Status": "open", "Icon": "small_green", "Type": "Pharmacy" }, "geometry": { "type": "Point", "coordinates": [ -95.591463, 29.73342 ] } },
{ "type": "Feature", "properties": { "X": 29.647018, "Y": -95.58152, "Name": "WALGREENS #6821", "Address": "11675 W AIRPORT BLVD", "City": "MEADOWS PLACE", "State": "TX", "Zip": 774773041, "formated_phone": "281-313-6403", "Status": "open", "Icon": "small_green", "Type": "Pharmacy" }, "geometry": { "type": "Point", "coordinates": [ -95.58152, 29.647018 ] } },
{ "type": "Feature", "properties": { "X": 29.756817, "Y": -95.345232, "Name": "CANAL PHARMACY", "Address": "2502 CANAL ST", "City": "HOUSTON", "State": "TX", "Zip": 770031523, "formated_phone": "713-227-5583", "Status": "unknown", "Icon": "small_yellow", "Type": "Pharmacy" }, "geometry": { "type": "Point", "coordinates": [ -95.345232, 29.756817 ] } },
{ "type": "Feature", "properties": { "X": 29.649995, "Y": -95.650015, "Name": "WALGREENS #6855", "Address": "11525 S HIGHWAY 6", "City": "SUGAR LAND", "State": "TX", "Zip": 774784932, "formated_phone": "281-565-4504", "Status": "open", "Icon": "small_green", "Type": "Pharmacy" }, "geometry": { "type": "Point", "coordinates": [ -95.650015, 29.649995 ] } },
{ "type": "Feature", "properties": { "X": 29.705207, "Y": -95.421213, "Name": "KELSEY PHARMACY MAIN", "Address": "2727 W HOLCOMBE BLVD", "City": "HOUSTON", "State": "TX", "Zip": 77025, "formated_phone": "713-442-0079", "Status": "unknown", "Icon": "small_yellow", "Type": "Pharmacy" }, "geometry": { "type": "Point", "coordinates": [ -95.421213, 29.705207 ] } },
{ "type": "Feature", "properties": { "X": 29.711983, "Y": -95.494714, "Name": "FARMACIA DEL SOL INC", "Address": "6420 HILLCROFT 101", "City": "HOUSTON", "State": "TX", "Zip": 77081, "formated_phone": "713-776-0806", "Status": "unknown", "Icon": "small_yellow", "Type": "Pharmacy" }, "geometry": { "type": "Point", "coordinates": [ -95.494714, 29.711983 ] } },
{ "type": "Feature", "properties": { "X": 29.722842, "Y": -95.416138, "Name": "DOYLES PHARMACY", "Address": "2425 SUNSET BLVD", "City": "HOUSTON", "State": "TX", "Zip": 770051713, "formated_phone": "713-526-1771", "Status": "not participating", "Icon": "measle_white", "Type": "Pharmacy" }, "geometry": { "type": "Point", "coordinates": [ -95.416138, 29.722842 ] } },
{ "type": "Feature", "properties": { "X": 29.750482, "Y": -95.49664, "Name": "WALGREENS #6643", "Address": "6360 SAN FELIPE ST", "City": "HOUSTON", "State": "TX", "Zip": 770572710, "formated_phone": "713-278-2616", "Status": "open", "Icon": "small_green", "Type": "Pharmacy" }, "geometry": { "type": "Point", "coordinates": [ -95.49664, 29.750482 ] } },
{ "type": "Feature", "properties": { "X": 29.671263, "Y": -95.355497, "Name": "Nikki's Apothecary,LLC", "Address": "8109 Cullen Boulevard Suite B", "City": "Houston", "State": "TX", "Zip": 77051, "formated_phone": "713-733-7424", "Status": "open", "Icon": "small_green", "Type": "Pharmacy" }, "geometry": { "type": "Point", "coordinates": [ -95.355497, 29.671263 ] } },
{ "type": "Feature", "properties": { "X": 29.698301, "Y": -95.295261, "Name": "HEB PHARMACY", "Address": "3111 WOODRIDGE SUITE 500", "City": "HOUSTON", "State": "TX", "Zip": 77087, "formated_phone": "713-847-0071", "Status": "not participating", "Icon": "measle_white", "Type": "Pharmacy" }, "geometry": { "type": "Point", "coordinates": [ -95.295261, 29.698301 ] } },
{ "type": "Feature", "properties": { "X": 29.752456, "Y": -95.605265, "Name": "KROGER PHARMACY", "Address": "12555 BRIAR FOREST DR", "City": "HOUSTON", "State": "TX", "Zip": 77077, "formated_phone": "281-496-1092", "Status": "not participating", "Icon": "measle_white", "Type": "Pharmacy" }, "geometry": { "type": "Point", "coordinates": [ -95.605265, 29.752456 ] } },
{ "type": "Feature", "properties": { "X": 29.695884, "Y": -95.415527, "Name": "KROGER PHARMACY", "Address": "7747 KIRBY DR", "City": "HOUSTON", "State": "TX", "Zip": 77030, "formated_phone": "713-661-7440", "Status": "not participating", "Icon": "measle_white", "Type": "Pharmacy" }, "geometry": { "type": "Point", "coordinates": [ -95.415527, 29.695884 ] } },
{ "type": "Feature", "properties": { "X": 29.690682, "Y": -95.407232, "Name": "ReCept Pharmacy #31", "Address": "8111 N Stadium Dr Ste 200A", "City": "HOUSTON", "State": "TX", "Zip": 770541842, "formated_phone": "713-627-2370", "Status": "open", "Icon": "small_green", "Type": "Pharmacy" }, "geometry": { "type": "Point", "coordinates": [ -95.407232, 29.690682 ] } },
{ "type": "Feature", "properties": { "X": 29.704044, "Y": -95.614102, "Name": "WALGREENS #7071", "Address": "13196 BELLAIRE BLVD", "City": "HOUSTON", "State": "TX", "Zip": 770725102, "formated_phone": "281-530-4918", "Status": "open", "Icon": "small_green", "Type": "Pharmacy" }, "geometry": { "type": "Point", "coordinates": [ -95.614102, 29.704044 ] } },
{ "type": "Feature", "properties": { "X": 29.724242, "Y": -95.470706, "Name": "SAMS PHARMACY 10-4769", "Address": "5310 SOUTH RICE AVENUE", "City": "HOUSTON", "State": "TX", "Zip": 77081, "formated_phone": "832-778-9807", "Status": "open", "Icon": "small_green", "Type": "Pharmacy" }, "geometry": { "type": "Point", "coordinates": [ -95.470706, 29.724242 ] } },
{ "type": "Feature", "properties": { "X": 29.723445, "Y": -95.387496, "Name": "RC3 Pharmacy", "Address": "1200 Binz Street Ste. 260 A", "City": "HOUSTON", "State": "TX", "Zip": 77004, "formated_phone": "713-541-6567", "Status": "open", "Icon": "small_green", "Type": "Pharmacy" }, "geometry": { "type": "Point", "coordinates": [ -95.387496, 29.723445 ] } },
{ "type": "Feature", "properties": { "X": 29.729148, "Y": -95.6052, "Name": "CVS Pharmacy #04427", "Address": "12585 RICHMOND AVE", "City": "HOUSTON", "State": "TX", "Zip": 770822487, "formated_phone": "281-749-8863", "Status": "open", "Icon": "small_green", "Type": "Pharmacy" }, "geometry": { "type": "Point", "coordinates": [ -95.6052, 29.729148 ] } },
{ "type": "Feature", "properties": { "X": 29.740408, "Y": -95.457453, "Name": "CVS Pharmacy #02988", "Address": "4755 WESTHEIMER RD", "City": "HOUSTON", "State": "TX", "Zip": 77027, "formated_phone": "713-386-1093", "Status": "open", "Icon": "small_green", "Type": "Pharmacy" }, "geometry": { "type": "Point", "coordinates": [ -95.457453, 29.740408 ] } },
{ "type": "Feature", "properties": { "X": 29.627738, "Y": -95.466006, "Name": "CVS Pharmacy #05269", "Address": "5510 W OREM DRIVE", "City": "HOUSTON", "State": "TX", "Zip": 770851250, "formated_phone": "713-723-1118", "Status": "open", "Icon": "small_green", "Type": "Pharmacy" }, "geometry": { "type": "Point", "coordinates": [ -95.466006, 29.627738 ] } },
{ "type": "Feature", "properties": { "X": 29.704711, "Y": -95.576527, "Name": "DARCY PHARMACY", "Address": "11210 BELLAIRE BLVD STE 130", "City": "HOUSTON", "State": "TX", "Zip": 77072, "formated_phone": "281-988-8300", "Status": "not participating", "Icon": "measle_white", "Type": "Pharmacy" }, "geometry": { "type": "Point", "coordinates": [ -95.576527, 29.704711 ] } },
{ "type": "Feature", "properties": { "X": 29.748874, "Y": -95.374987, "Name": "RANDALLS PHARMACY #1773", "Address": "2225 Louisiana St", "City": "HOUSTON", "State": "TX", "Zip": 770028625, "formated_phone": "713-331-1053", "Status": "open", "Icon": "small_green", "Type": "Pharmacy" }, "geometry": { "type": "Point", "coordinates": [ -95.374987, 29.748874 ] } },
{ "type": "Feature", "properties": { "X": 29.690218, "Y": -95.561082, "Name": "HEB PHARMACY", "Address": "10100 BEECHNUT", "City": "HOUSTON", "State": "TX", "Zip": 77072, "formated_phone": "281-564-5209", "Status": "not participating", "Icon": "measle_white", "Type": "Pharmacy" }, "geometry": { "type": "Point", "coordinates": [ -95.561082, 29.690218 ] } },
{ "type": "Feature", "properties": { "X": 29.727882, "Y": -95.571953, "Name": "CVS Pharmacy #03181", "Address": "11112 RICHMOND AVE", "City": "HOUSTON", "State": "TX", "Zip": 77042, "formated_phone": "713-458-2871", "Status": "open", "Icon": "small_green", "Type": "Pharmacy" }, "geometry": { "type": "Point", "coordinates": [ -95.571953, 29.727882 ] } },
{ "type": "Feature", "properties": { "X": 29.678967, "Y": -95.425644, "Name": "CVS Pharmacy #05258", "Address": "9838 BUFFALO SPEEDWAY", "City": "HOUSTON", "State": "TX", "Zip": 77025, "formated_phone": "713-218-4491", "Status": "open", "Icon": "small_green", "Type": "Pharmacy" }, "geometry": { "type": "Point", "coordinates": [ -95.425644, 29.678967 ] } },
{ "type": "Feature", "properties": { "X": 29.642338, "Y": -95.527158, "Name": "CVS Pharmacy #05320", "Address": "8550 W AIRPORT BLVD", "City": "HOUSTON", "State": "TX", "Zip": 77071, "formated_phone": "713-596-2163", "Status": "open", "Icon": "small_green", "Type": "Pharmacy" }, "geometry": { "type": "Point", "coordinates": [ -95.527158, 29.642338 ] } },
{ "type": "Feature", "properties": { "X": 29.674425, "Y": -95.495469, "Name": "WALMART PHARMACY 10-5094", "Address": "9700 HILLCROFT STREET", "City": "HOUSTON", "State": "TX", "Zip": 77096, "formated_phone": "713-283-7437", "Status": "open", "Icon": "small_green", "Type": "Pharmacy" }, "geometry": { "type": "Point", "coordinates": [ -95.495469, 29.674425 ] } },
{ "type": "Feature", "properties": { "X": 29.704351, "Y": -95.47584, "Name": "CVS Pharmacy #05273", "Address": "5430 BISSONNET ST", "City": "BELLAIRE", "State": "TX", "Zip": 77401, "formated_phone": "713-218-2291", "Status": "open", "Icon": "small_green", "Type": "Pharmacy" }, "geometry": { "type": "Point", "coordinates": [ -95.47584, 29.704351 ] } },
{ "type": "Feature", "properties": { "X": 29.595637, "Y": -95.525857, "Name": "WALGREENS #7531", "Address": "2203 TEXAS PKWY", "City": "MISSOURI CITY", "State": "TX", "Zip": 774894009, "formated_phone": "281-208-3304", "Status": "open", "Icon": "small_green", "Type": "Pharmacy" }, "geometry": { "type": "Point", "coordinates": [ -95.525857, 29.595637 ] } },
{ "type": "Feature", "properties": { "X": 29.649121, "Y": -95.650488, "Name": "KROGER PHARMACY", "Address": "11565 STATE HWY 6 SO", "City": "SUGARLAND", "State": "TX", "Zip": 77478, "formated_phone": "281-340-1504", "Status": "not participating", "Icon": "measle_white", "Type": "Pharmacy" }, "geometry": { "type": "Point", "coordinates": [ -95.650488, 29.649121 ] } },
{ "type": "Feature", "properties": { "X": 29.726138, "Y": -95.548352, "Name": "CAREPHARM PHARMACY LTC", "Address": "3535 BRIAR PARK DR STE 110A", "City": "HOUSTON", "State": "TX", "Zip": 77042, "formated_phone": "800-503-7604", "Status": "not participating", "Icon": "measle_white", "Type": "Pharmacy" }, "geometry": { "type": "Point", "coordinates": [ -95.548352, 29.726138 ] } },
{ "type": "Feature", "properties": { "X": 29.667704, "Y": -95.643999, "Name": "CVS Pharmacy #05804", "Address": "10110 S HWY 6", "City": "SUGARLAND", "State": "TX", "Zip": 77478, "formated_phone": "281-988-1952", "Status": "open", "Icon": "small_green", "Type": "Pharmacy" }, "geometry": { "type": "Point", "coordinates": [ -95.643999, 29.667704 ] } },
{ "type": "Feature", "properties": { "X": 29.731777, "Y": -95.588735, "Name": "WALGREENS #7722", "Address": "11994 RICHMOND AVE", "City": "HOUSTON", "State": "TX", "Zip": 770826827, "formated_phone": "281-556-5918", "Status": "open", "Icon": "small_green", "Type": "Pharmacy" }, "geometry": { "type": "Point", "coordinates": [ -95.588735, 29.731777 ] } },
{ "type": "Feature", "properties": { "X": 29.706419, "Y": -95.411919, "Name": "CVS Pharmacy #05833", "Address": "2266 WEST HOLCOMBE BLVD", "City": "HOUSTON", "State": "TX", "Zip": 77030, "formated_phone": "713-218-2180", "Status": "open", "Icon": "small_green", "Type": "Pharmacy" }, "geometry": { "type": "Point", "coordinates": [ -95.411919, 29.706419 ] } },
{ "type": "Feature", "properties": { "X": 29.687913, "Y": -95.621544, "Name": "CVS Pharmacy #06001", "Address": "13555 BEECHNUT ST", "City": "HOUSTON", "State": "TX", "Zip": 77083, "formated_phone": "281-776-3858", "Status": "open", "Icon": "small_green", "Type": "Pharmacy" }, "geometry": { "type": "Point", "coordinates": [ -95.621544, 29.687913 ] } },
{ "type": "Feature", "properties": { "X": 29.704275, "Y": -95.595661, "Name": "CVS Pharmacy #05884", "Address": "12260 BELLAIRE BLVD", "City": "HOUSTON", "State": "TX", "Zip": 77072, "formated_phone": "281-776-3867", "Status": "open", "Icon": "small_green", "Type": "Pharmacy" }, "geometry": { "type": "Point", "coordinates": [ -95.595661, 29.704275 ] } },
{ "type": "Feature", "properties": { "X": 29.691494, "Y": -95.535726, "Name": "CVS Pharmacy #03693", "Address": "7950 S Gessner Rd", "City": "HOUSTON", "State": "TX", "Zip": 77036, "formated_phone": "713-484-6011", "Status": "open", "Icon": "small_green", "Type": "Pharmacy" }, "geometry": { "type": "Point", "coordinates": [ -95.535726, 29.691494 ] } },
{ "type": "Feature", "properties": { "X": 29.674914, "Y": -95.570953, "Name": "CVS Pharmacy #05882", "Address": "10902 BISSONNET ST", "City": "HOUSTON", "State": "TX", "Zip": 77099, "formated_phone": "281-776-3874", "Status": "open", "Icon": "small_green", "Type": "Pharmacy" }, "geometry": { "type": "Point", "coordinates": [ -95.570953, 29.674914 ] } },
{ "type": "Feature", "properties": { "X": 29.637363, "Y": -95.529654, "Name": "WALGREENS #4105", "Address": "12611 S GESSNER DR", "City": "HOUSTON", "State": "TX", "Zip": 770712850, "formated_phone": "713-266-1853", "Status": "open", "Icon": "small_green", "Type": "Pharmacy" }, "geometry": { "type": "Point", "coordinates": [ -95.529654, 29.637363 ] } },
{ "type": "Feature", "properties": { "X": 29.715824, "Y": -95.496819, "Name": "AAPEX PHARMACY", "Address": "6065 HILLCROFT PLAZA STE109", "City": "HOUSTON", "State": "TX", "Zip": 77081, "formated_phone": "713-270-7771", "Status": "open", "Icon": "small_green", "Type": "Pharmacy" }, "geometry": { "type": "Point", "coordinates": [ -95.496819, 29.715824 ] } },
{ "type": "Feature", "properties": { "X": 29.654976, "Y": -95.529318, "Name": "WEST BELLFORT PHARMACY", "Address": "8737 WEST BELLFORT", "City": "HOUSTON", "State": "TX", "Zip": 77031, "formated_phone": "713-771-4343", "Status": "not participating", "Icon": "measle_white", "Type": "Pharmacy" }, "geometry": { "type": "Point", "coordinates": [ -95.529318, 29.654976 ] } },
{ "type": "Feature", "properties": { "X": 29.600132, "Y": -95.563622, "Name": "WALGREENS #7721", "Address": "1307 FM 1092 RD", "City": "MISSOURI CITY", "State": "TX", "Zip": 774591504, "formated_phone": "281-499-5150", "Status": "open", "Icon": "small_green", "Type": "Pharmacy" }, "geometry": { "type": "Point", "coordinates": [ -95.563622, 29.600132 ] } },
{ "type": "Feature", "properties": { "X": 29.751169, "Y": -95.376365, "Name": "CVS Pharmacy #05968", "Address": "402 GRAY ST", "City": "HOUSTON", "State": "TX", "Zip": 77002, "formated_phone": "713-982-5527", "Status": "open", "Icon": "small_green", "Type": "Pharmacy" }, "geometry": { "type": "Point", "coordinates": [ -95.376365, 29.751169 ] } },
{ "type": "Feature", "properties": { "X": 29.668424, "Y": -95.679472, "Name": "KROGER PHARMACY", "Address": "6425 FM 1464 Rd", "City": "RICHMOND", "State": "TX", "Zip": 774078287, "formated_phone": "281-277-2242", "Status": "not participating", "Icon": "measle_white", "Type": "Pharmacy" }, "geometry": { "type": "Point", "coordinates": [ -95.679472, 29.668424 ] } },
{ "type": "Feature", "properties": { "X": 29.700452, "Y": -95.688767, "Name": "WALGREENS #9504", "Address": "7102 FM 1464 RD", "City": "RICHMOND", "State": "TX", "Zip": 774076429, "formated_phone": "281-494-1984", "Status": "open", "Icon": "small_green", "Type": "Pharmacy" }, "geometry": { "type": "Point", "coordinates": [ -95.688767, 29.700452 ] } },
{ "type": "Feature", "properties": { "X": 29.706088, "Y": -95.475597, "Name": "AMEX PHARMACY# 5", "Address": "5420 BELLAIRE BLVD", "City": "BELLAIRE", "State": "TX", "Zip": 77401, "formated_phone": "832-778-0400", "Status": "unknown", "Icon": "small_yellow", "Type": "Pharmacy" }, "geometry": { "type": "Point", "coordinates": [ -95.475597, 29.706088 ] } },
{ "type": "Feature", "properties": { "X": 29.702702, "Y": -95.360328, "Name": "CVS Pharmacy #07198", "Address": "3811 OLD SPANISH TRAIL", "City": "HOUSTON", "State": "TX", "Zip": 77021, "formated_phone": "713-741-7900", "Status": "open", "Icon": "small_green", "Type": "Pharmacy" }, "geometry": { "type": "Point", "coordinates": [ -95.360328, 29.702702 ] } },
{ "type": "Feature", "properties": { "X": 29.74465, "Y": -95.45314, "Name": "CVS Pharmacy #16368", "Address": "4323 SAN FELIPE ST", "City": "HOUSTON", "State": "TX", "Zip": 77027, "formated_phone": "713-331-0166", "Status": "open", "Icon": "small_green", "Type": "Pharmacy" }, "geometry": { "type": "Point", "coordinates": [ -95.45314, 29.74465 ] } },
{ "type": "Feature", "properties": { "X": 29.659831, "Y": -95.597308, "Name": "CVS Pharmacy #08385", "Address": "12381 WEST BELLFORT", "City": "MEADOWS PLACE", "State": "TX", "Zip": 77477, "formated_phone": "281-776-3070", "Status": "open", "Icon": "small_green", "Type": "Pharmacy" }, "geometry": { "type": "Point", "coordinates": [ -95.597308, 29.659831 ] } },
{ "type": "Feature", "properties": { "X": 29.757107, "Y": -95.397918, "Name": "CVS Pharmacy #05840", "Address": "1001 WAUGH DRIVE", "City": "HOUSTON", "State": "TX", "Zip": 77019, "formated_phone": "713-807-7859", "Status": "open", "Icon": "small_green", "Type": "Pharmacy" }, "geometry": { "type": "Point", "coordinates": [ -95.397918, 29.757107 ] } },
{ "type": "Feature", "properties": { "X": 29.733711, "Y": -95.391505, "Name": "CVS Pharmacy #07162", "Address": "1003 RICHMOND AVE", "City": "HOUSTON", "State": "TX", "Zip": 77006, "formated_phone": "713-807-8491", "Status": "open", "Icon": "small_green", "Type": "Pharmacy" }, "geometry": { "type": "Point", "coordinates": [ -95.391505, 29.733711 ] } },
{ "type": "Feature", "properties": { "X": 29.68863, "Y": -95.506723, "Name": "MEDCARE RX PHARMACY", "Address": "7052 BISSONNET ST", "City": "Houston", "State": "TX", "Zip": 77074, "formated_phone": "713-272-9600", "Status": "open", "Icon": "small_green", "Type": "Pharmacy" }, "geometry": { "type": "Point", "coordinates": [ -95.506723, 29.68863 ] } },
{ "type": "Feature", "properties": { "X": 29.626745, "Y": -95.46586, "Name": "WALGREENS #9471", "Address": "5501 WEST OREM DR", "City": "HOUSTON", "State": "TX", "Zip": 770851253, "formated_phone": "713-728-9406", "Status": "open", "Icon": "small_green", "Type": "Pharmacy" }, "geometry": { "type": "Point", "coordinates": [ -95.46586, 29.626745 ] } },
{ "type": "Feature", "properties": { "X": 29.651835, "Y": -95.619397, "Name": "WALGREENS #3324", "Address": "2103 ELDRIDGE RD", "City": "SUGARLAND", "State": "TX", "Zip": 774781811, "formated_phone": "281-240-0040", "Status": "open", "Icon": "small_green", "Type": "Pharmacy" }, "geometry": { "type": "Point", "coordinates": [ -95.619397, 29.651835 ] } },
{ "type": "Feature", "properties": { "X": 29.729405, "Y": -95.645198, "Name": "CVS Pharmacy #06744", "Address": "14606 RICHMOND AVE", "City": "HOUSTON", "State": "TX", "Zip": 77082, "formated_phone": "281-509-3440", "Status": "open", "Icon": "small_green", "Type": "Pharmacy" }, "geometry": { "type": "Point", "coordinates": [ -95.645198, 29.729405 ] } },
{ "type": "Feature", "properties": { "X": 29.730096, "Y": -95.418878, "Name": "CVS Pharmacy #05685", "Address": "4700 KIRBY DRIVE", "City": "HOUSTON", "State": "TX", "Zip": 77098, "formated_phone": "713-533-2200", "Status": "open", "Icon": "small_green", "Type": "Pharmacy" }, "geometry": { "type": "Point", "coordinates": [ -95.418878, 29.730096 ] } },
{ "type": "Feature", "properties": { "X": 29.753445, "Y": -95.338534, "Name": "CANAL RX", "Address": "3311 CANAL ST", "City": "HOUSTON", "State": "TX", "Zip": 77003, "formated_phone": "713-547-0752", "Status": "open", "Icon": "small_green", "Type": "Pharmacy" }, "geometry": { "type": "Point", "coordinates": [ -95.338534, 29.753445 ] } },
{ "type": "Feature", "properties": { "X": 29.715741, "Y": -95.502091, "Name": "PHARMACY PLUS", "Address": "6776 SOUTHWEST FWY STE 102", "City": "HOUSTON", "State": "TX", "Zip": 77074, "formated_phone": "713-782-0558", "Status": "open", "Icon": "small_green", "Type": "Pharmacy" }, "geometry": { "type": "Point", "coordinates": [ -95.502091, 29.715741 ] } },
{ "type": "Feature", "properties": { "X": 29.686813, "Y": -95.462096, "Name": "CVS Pharmacy #17091", "Address": "300 MEYERLAND PLAZA MALL", "City": "HOUSTON", "State": "TX", "Zip": 77096, "formated_phone": "713-292-0031", "Status": "open", "Icon": "small_green", "Type": "Pharmacy" }, "geometry": { "type": "Point", "coordinates": [ -95.462096, 29.686813 ] } },
{ "type": "Feature", "properties": { "X": 29.757127, "Y": -95.364429, "Name": "CVS Pharmacy #06834", "Address": "917 MAIN ST", "City": "HOUSTON", "State": "TX", "Zip": 77002, "formated_phone": "713-982-5565", "Status": "open", "Icon": "small_green", "Type": "Pharmacy" }, "geometry": { "type": "Point", "coordinates": [ -95.364429, 29.757127 ] } },
{ "type": "Feature", "properties": { "X": 29.730501, "Y": -95.487982, "Name": "EXPERIENCE INFUSION CENTER", "Address": "6105 Beverlyhill St Ste 200", "City": "Houston", "State": "TX", "Zip": 770576716, "formated_phone": "281-240-4144", "Status": "not participating", "Icon": "measle_white", "Type": "Pharmacy" }, "geometry": { "type": "Point", "coordinates": [ -95.487982, 29.730501 ] } },
{ "type": "Feature", "properties": { "X": 29.716634, "Y": -95.338963, "Name": "STUDENT HEALTH PHARMACY", "Address": "4849 CALHOUN RD RM 1211", "City": "HOUSTON", "State": "TX", "Zip": 772043016, "formated_phone": "713-743-5125", "Status": "open", "Icon": "small_green", "Type": "Pharmacy" }, "geometry": { "type": "Point", "coordinates": [ -95.338963, 29.716634 ] } },
{ "type": "Feature", "properties": { "X": 29.737314, "Y": -95.581691, "Name": "CVS PHARMACY", "Address": "11540 WESTHEIMER RD", "City": "HOUSTON", "State": "TX", "Zip": 770776708, "formated_phone": "281-679-8031", "Status": "open", "Icon": "small_green", "Type": "Pharmacy" }, "geometry": { "type": "Point", "coordinates": [ -95.581691, 29.737314 ] } },
{ "type": "Feature", "properties": { "X": 29.678087, "Y": -95.56074, "Name": "WALMART PHARMACY 10-3302", "Address": "9460 W SAM HOUSTON PKWY S", "City": "HOUSTON", "State": "TX", "Zip": 77099, "formated_phone": "281-568-3134", "Status": "open", "Icon": "small_green", "Type": "Pharmacy" }, "geometry": { "type": "Point", "coordinates": [ -95.56074, 29.678087 ] } },
{ "type": "Feature", "properties": { "X": 29.676216, "Y": -95.427944, "Name": "MAIN MEDICAL PLAZA PHARMACY", "Address": "10019 S MAIN STE A10", "City": "HOUSTON", "State": "TX", "Zip": 77025, "formated_phone": "713-667-5003", "Status": "not participating", "Icon": "measle_white", "Type": "Pharmacy" }, "geometry": { "type": "Point", "coordinates": [ -95.427944, 29.676216 ] } },
{ "type": "Feature", "properties": { "X": 29.779016, "Y": -95.618393, "Name": "CVS Pharmacy #01753", "Address": "15010 MEMORIAL DR", "City": "HOUSTON", "State": "TX", "Zip": 77079, "formated_phone": "281-368-1600", "Status": "open", "Icon": "small_green", "Type": "Pharmacy" }, "geometry": { "type": "Point", "coordinates": [ -95.618393, 29.779016 ] } },
{ "type": "Feature", "properties": { "X": 29.766492, "Y": -95.409904, "Name": "WALGREENS #9294", "Address": "415 SHEPHERD DR", "City": "HOUSTON", "State": "TX", "Zip": 770077335, "formated_phone": "713-868-1520", "Status": "open", "Icon": "small_green", "Type": "Pharmacy" }, "geometry": { "type": "Point", "coordinates": [ -95.409904, 29.766492 ] } },
{ "type": "Feature", "properties": { "X": 29.705577, "Y": -95.418772, "Name": "WALGREENS #9696", "Address": "2605 W HOLCOMBE BLVD", "City": "HOUSTON", "State": "TX", "Zip": 77025, "formated_phone": "832-778-8106", "Status": "open", "Icon": "small_green", "Type": "Pharmacy" }, "geometry": { "type": "Point", "coordinates": [ -95.418772, 29.705577 ] } },
{ "type": "Feature", "properties": { "X": 29.693596, "Y": -95.521276, "Name": "WALGREENS #10522", "Address": "7777 SOUTHWEST FWY STE 104", "City": "HOUSTON", "State": "TX", "Zip": 770741802, "formated_phone": "713-270-0632", "Status": "open", "Icon": "small_green", "Type": "Pharmacy" }, "geometry": { "type": "Point", "coordinates": [ -95.521276, 29.693596 ] } },
{ "type": "Feature", "properties": { "X": 29.708595, "Y": -95.55007, "Name": "BRIGHTMED PHARMACY", "Address": "9630 Clarewood Dr Ste A3", "City": "HOUSTON", "State": "TX", "Zip": 77036, "formated_phone": "713-772-7700", "Status": "open", "Icon": "small_green", "Type": "Pharmacy" }, "geometry": { "type": "Point", "coordinates": [ -95.55007, 29.708595 ] } },
{ "type": "Feature", "properties": { "X": 29.706426, "Y": -95.556235, "Name": "Sterling Pharmacy", "Address": "6609 W Sam Houston Pkwy S Ste 98B", "City": "HOUSTON", "State": "TX", "Zip": 770721641, "formated_phone": "713-995-8885", "Status": "open", "Icon": "small_green", "Type": "Pharmacy" }, "geometry": { "type": "Point", "coordinates": [ -95.556235, 29.706426 ] } },
{ "type": "Feature", "properties": { "X": 29.747084, "Y": -95.37806, "Name": "WALGREENS #9808", "Address": "2612 SMITH ST", "City": "HOUSTON", "State": "TX", "Zip": 770063514, "formated_phone": "713-529-2969", "Status": "open", "Icon": "small_green", "Type": "Pharmacy" }, "geometry": { "type": "Point", "coordinates": [ -95.37806, 29.747084 ] } },
{ "type": "Feature", "properties": { "X": 29.674683, "Y": -95.589492, "Name": "GRAND PARKWAY PHARMACY AND MEDICAL SUPPLY", "Address": "11965 bissonnet st", "City": "HOUSTON", "State": "TX", "Zip": 77099, "formated_phone": "281-495-5777", "Status": "open", "Icon": "small_green", "Type": "Pharmacy" }, "geometry": { "type": "Point", "coordinates": [ -95.589492, 29.674683 ] } },
{ "type": "Feature", "properties": { "X": 29.664855, "Y": -95.36788, "Name": "POWER CENTER PHARMACY", "Address": "8803 SCOTT ST", "City": "HOUSTON", "State": "TX", "Zip": 77051, "formated_phone": "713-731-8999", "Status": "not participating", "Icon": "measle_white", "Type": "Pharmacy" }, "geometry": { "type": "Point", "coordinates": [ -95.36788, 29.664855 ] } },
{ "type": "Feature", "properties": { "X": 29.696827, "Y": -95.413074, "Name": "SOUTHSIDE PHARMACY", "Address": "7700 Main St Ste 100", "City": "HOUSTON", "State": "TX", "Zip": 770304457, "formated_phone": "713-660-8888", "Status": "open", "Icon": "small_green", "Type": "Pharmacy" }, "geometry": { "type": "Point", "coordinates": [ -95.413074, 29.696827 ] } },
{ "type": "Feature", "properties": { "X": 29.736003, "Y": -95.518344, "Name": "CVS Pharmacy #", "Address": "8605 WESTHEIMER RD", "City": "HOUSTON", "State": "TX", "Zip": 77063, "formated_phone": "713-331-0374", "Status": "open", "Icon": "small_green", "Type": "Pharmacy" }, "geometry": { "type": "Point", "coordinates": [ -95.518344, 29.736003 ] } },
{ "type": "Feature", "properties": { "X": 29.652269, "Y": -95.476467, "Name": "RX Pharmacy", "Address": "5600 S WILLOW DRIVE, SUITE 113", "City": "HOUSTON", "State": "TX", "Zip": 77035, "formated_phone": "713-723-4600", "Status": "not participating", "Icon": "measle_white", "Type": "Pharmacy" }, "geometry": { "type": "Point", "coordinates": [ -95.476467, 29.652269 ] } },
{ "type": "Feature", "properties": { "X": 29.691449, "Y": -95.403668, "Name": "WALGREENS #10848", "Address": "7900 FANNIN ST STE 1350", "City": "HOUSTON", "State": "TX", "Zip": 770542944, "formated_phone": "713-791-9426", "Status": "open", "Icon": "small_green", "Type": "Pharmacy" }, "geometry": { "type": "Point", "coordinates": [ -95.403668, 29.691449 ] } },
{ "type": "Feature", "properties": { "X": 29.705456, "Y": -95.546479, "Name": "PARK PLACE HEALTH CENTER PHARMACY", "Address": "9250A BELLAIRE BLVD", "City": "HOUSTON", "State": "TX", "Zip": 77036, "formated_phone": "713-847-6800", "Status": "not participating", "Icon": "measle_white", "Type": "Pharmacy" }, "geometry": { "type": "Point", "coordinates": [ -95.546479, 29.705456 ] } },
{ "type": "Feature", "properties": { "X": 29.694542, "Y": -95.555813, "Name": "KIM LONG PHARMACY", "Address": "7601 W SAM HOUSTON PKWY S STE 900", "City": "HOUSTON", "State": "TX", "Zip": 77072, "formated_phone": "713-777-1414", "Status": "open", "Icon": "small_green", "Type": "Pharmacy" }, "geometry": { "type": "Point", "coordinates": [ -95.555813, 29.694542 ] } },
{ "type": "Feature", "properties": { "X": 29.715126, "Y": -95.397348, "Name": "WALGREENS #10846", "Address": "6400 FANNIN ST STE 102", "City": "HOUSTON", "State": "TX", "Zip": 770301523, "formated_phone": "713-799-2459", "Status": "open", "Icon": "small_green", "Type": "Pharmacy" }, "geometry": { "type": "Point", "coordinates": [ -95.397348, 29.715126 ] } },
{ "type": "Feature", "properties": { "X": 29.600437, "Y": -95.564562, "Name": "CVS Pharmacy #06754", "Address": "1302 FM 1092", "City": "MISSOURI CITY", "State": "TX", "Zip": 77459, "formated_phone": "281-499-5537", "Status": "open", "Icon": "small_green", "Type": "Pharmacy" }, "geometry": { "type": "Point", "coordinates": [ -95.564562, 29.600437 ] } },
{ "type": "Feature", "properties": { "X": 29.712285, "Y": -95.495042, "Name": "HILLCROFT PHARMACY", "Address": "6400 HILLCROFT STE 107", "City": "HOUSTON", "State": "TX", "Zip": 77081, "formated_phone": "713-988-9996", "Status": "open", "Icon": "small_green", "Type": "Pharmacy" }, "geometry": { "type": "Point", "coordinates": [ -95.495042, 29.712285 ] } },
{ "type": "Feature", "properties": { "X": 29.735572, "Y": -95.56786, "Name": "CVS Pharmacy #16017", "Address": "10801 WESTHEIMER RD", "City": "HOUSTON", "State": "TX", "Zip": 77042, "formated_phone": "713-580-0178", "Status": "open", "Icon": "small_green", "Type": "Pharmacy" }, "geometry": { "type": "Point", "coordinates": [ -95.56786, 29.735572 ] } },
{ "type": "Feature", "properties": { "X": 29.703742, "Y": -95.567002, "Name": "BIOCARE PHARMACY", "Address": "10603 BELLAIRE BLVD SUITE B114", "City": "HOUSTON", "State": "TX", "Zip": 77072, "formated_phone": "281-530-5800", "Status": "open", "Icon": "small_green", "Type": "Pharmacy" }, "geometry": { "type": "Point", "coordinates": [ -95.567002, 29.703742 ] } },
{ "type": "Feature", "properties": { "X": 29.741093, "Y": -95.376928, "Name": "CVS Pharmacy #00784", "Address": "1000 ELGIN STREET", "City": "HOUSTON", "State": "TX", "Zip": 77004, "formated_phone": "713-526-4478", "Status": "open", "Icon": "small_green", "Type": "Pharmacy" }, "geometry": { "type": "Point", "coordinates": [ -95.376928, 29.741093 ] } },
{ "type": "Feature", "properties": { "X": 29.719534, "Y": -95.494508, "Name": "MED PHARMACY RX OF AMERICA", "Address": "6401 SOUTHWEST FREEWAY STE 100", "City": "HOUSTON", "State": "TX", "Zip": 77074, "formated_phone": "713-774-8301", "Status": "not participating", "Icon": "measle_white", "Type": "Pharmacy" }, "geometry": { "type": "Point", "coordinates": [ -95.494508, 29.719534 ] } },
{ "type": "Feature", "properties": { "X": 29.65199, "Y": -95.570262, "Name": "LOTUS RX PHARMACY AND MEDICAL SUPPLIES", "Address": "11704 S Wilcrest Dr", "City": "Houston", "State": "TX", "Zip": 77099, "formated_phone": "281-983-0399", "Status": "not participating", "Icon": "measle_white", "Type": "Pharmacy" }, "geometry": { "type": "Point", "coordinates": [ -95.570262, 29.65199 ] } },
{ "type": "Feature", "properties": { "X": 29.693383, "Y": -95.412797, "Name": "WALGREENS #10818", "Address": "7929 KIRBY DR", "City": "HOUSTON", "State": "TX", "Zip": 770541701, "formated_phone": "713-383-0292", "Status": "open", "Icon": "small_green", "Type": "Pharmacy" }, "geometry": { "type": "Point", "coordinates": [ -95.412797, 29.693383 ] } },
{ "type": "Feature", "properties": { "X": 29.677553, "Y": -95.550448, "Name": "Vac Pharmacy, Inc.", "Address": "9888 BISSONNET ST STE 405", "City": "HOUSTON", "State": "TX", "Zip": 77036, "formated_phone": "832-269-5944", "Status": "not participating", "Icon": "measle_white", "Type": "Pharmacy" }, "geometry": { "type": "Point", "coordinates": [ -95.550448, 29.677553 ] } },
{ "type": "Feature", "properties": { "X": 29.760399, "Y": -95.644135, "Name": "CVS Pharmacy #48353", "Address": "14703 EAGLE VISTA DR STE 100", "City": "HOUSTON", "State": "TX", "Zip": 77077, "formated_phone": "281-249-7290", "Status": "open", "Icon": "small_green", "Type": "Pharmacy" }, "geometry": { "type": "Point", "coordinates": [ -95.644135, 29.760399 ] } },
{ "type": "Feature", "properties": { "X": 29.655867, "Y": -95.507956, "Name": "WALGREENS #4927", "Address": "6675 W BELLFORT ST", "City": "HOUSTON", "State": "TX", "Zip": 770352058, "formated_phone": "713-728-1202", "Status": "open", "Icon": "small_green", "Type": "Pharmacy" }, "geometry": { "type": "Point", "coordinates": [ -95.507956, 29.655867 ] } },
{ "type": "Feature", "properties": { "X": 29.742533, "Y": -95.421959, "Name": "CVS Pharmacy #07126", "Address": "2910 WESTHEIMER RD", "City": "HOUSTON", "State": "TX", "Zip": 77098, "formated_phone": "713-526-0062", "Status": "open", "Icon": "small_green", "Type": "Pharmacy" }, "geometry": { "type": "Point", "coordinates": [ -95.421959, 29.742533 ] } },
{ "type": "Feature", "properties": { "X": 29.723219, "Y": -95.461154, "Name": "PLATINUM RX", "Address": "5420 WEST LOOP SOUTH STE 1500", "City": "BELLAIRE", "State": "TX", "Zip": 77401, "formated_phone": "713-667-6777", "Status": "open", "Icon": "small_green", "Type": "Pharmacy" }, "geometry": { "type": "Point", "coordinates": [ -95.461154, 29.723219 ] } },
{ "type": "Feature", "properties": { "X": 29.676708, "Y": -95.601442, "Name": "R AND Y COMMUNITY PHARMACY LLC", "Address": "12659 Bissonnet Street", "City": "Houston", "State": "TX", "Zip": 770991331, "formated_phone": "713-777-7002", "Status": "not participating", "Icon": "measle_white", "Type": "Pharmacy" }, "geometry": { "type": "Point", "coordinates": [ -95.601442, 29.676708 ] } },
{ "type": "Feature", "properties": { "X": 29.742463, "Y": -95.323318, "Name": "APOTEK PHARMACY", "Address": "5201 Harrisburg Blvd", "City": "HOUSTON", "State": "TX", "Zip": 77011, "formated_phone": "713-928-3210", "Status": "not participating", "Icon": "measle_white", "Type": "Pharmacy" }, "geometry": { "type": "Point", "coordinates": [ -95.323318, 29.742463 ] } },
{ "type": "Feature", "properties": { "X": 29.691508, "Y": -95.51853, "Name": "BEECHNUT PROFESSIONAL PHARMACY", "Address": "7500 BEECHNUT STE 151", "City": "HOUSTON", "State": "TX", "Zip": 770744300, "formated_phone": "713-988-1103", "Status": "open", "Icon": "small_green", "Type": "Pharmacy" }, "geometry": { "type": "Point", "coordinates": [ -95.51853, 29.691508 ] } },
{ "type": "Feature", "properties": { "X": 29.675813, "Y": -95.553082, "Name": "REGENCY PHARMACY", "Address": "9898 BISSONNET STREET STE 250A", "City": "HOUSTON", "State": "TX", "Zip": 77036, "formated_phone": "713-800-0308", "Status": "not participating", "Icon": "measle_white", "Type": "Pharmacy" }, "geometry": { "type": "Point", "coordinates": [ -95.553082, 29.675813 ] } },
{ "type": "Feature", "properties": { "X": 29.732682, "Y": -95.627236, "Name": "CVS Pharmacy #17476", "Address": "2700 ELDRIDGE PKWY", "City": "HOUSTON", "State": "TX", "Zip": 77082, "formated_phone": "281-810-5252", "Status": "open", "Icon": "small_green", "Type": "Pharmacy" }, "geometry": { "type": "Point", "coordinates": [ -95.627236, 29.732682 ] } },
{ "type": "Feature", "properties": { "X": 29.734149, "Y": -95.439487, "Name": "COSTCO PHARMACY #1018", "Address": "3836 RICHMOND AVE", "City": "HOUSTON", "State": "TX", "Zip": 770275802, "formated_phone": "832-325-5859", "Status": "open", "Icon": "small_green", "Type": "Pharmacy" }, "geometry": { "type": "Point", "coordinates": [ -95.439487, 29.734149 ] } },
{ "type": "Feature", "properties": { "X": 29.727164, "Y": -95.427677, "Name": "HEB PHARMACY", "Address": "5225A BUFFALO SPEEDWAY", "City": "HOUSTON", "State": "TX", "Zip": 77005, "formated_phone": "713-664-3426", "Status": "not participating", "Icon": "measle_white", "Type": "Pharmacy" }, "geometry": { "type": "Point", "coordinates": [ -95.427677, 29.727164 ] } },
{ "type": "Feature", "properties": { "X": 29.703377, "Y": -95.720463, "Name": "CVS Pharmacy #05484", "Address": "6900 Grand Mission Blvd", "City": "Richmond", "State": "TX", "Zip": 77407, "formated_phone": "281-239-6517", "Status": "open", "Icon": "small_green", "Type": "Pharmacy" }, "geometry": { "type": "Point", "coordinates": [ -95.720463, 29.703377 ] } },
{ "type": "Feature", "properties": { "X": 29.706538, "Y": -95.407459, "Name": "OC Pharmacy II", "Address": "2130 W Holcombe Blvd 10th floor", "City": "Houston", "State": "TX", "Zip": 770303305, "formated_phone": "713-600-0934", "Status": "not participating", "Icon": "measle_white", "Type": "Pharmacy" }, "geometry": { "type": "Point", "coordinates": [ -95.407459, 29.706538 ] } },
{ "type": "Feature", "properties": { "X": 29.719248, "Y": -95.477064, "Name": "Healthco Pharmacy Corp", "Address": "5730 Chimney Rock Rd", "City": "Houston", "State": "TX", "Zip": 77081, "formated_phone": "713-218-6337", "Status": "open", "Icon": "small_green", "Type": "Pharmacy" }, "geometry": { "type": "Point", "coordinates": [ -95.477064, 29.719248 ] } },
{ "type": "Feature", "properties": { "X": 29.703052, "Y": -95.616212, "Name": "J & I Pharmacy", "Address": "13249 Bellaire Blvd", "City": "Houston", "State": "TX", "Zip": 77083, "formated_phone": "281-372-6526", "Status": "not participating", "Icon": "measle_white", "Type": "Pharmacy" }, "geometry": { "type": "Point", "coordinates": [ -95.616212, 29.703052 ] } },
{ "type": "Feature", "properties": { "X": 29.688195, "Y": -95.526747, "Name": "MAYFLOWER PHARMACY, INC", "Address": "8323 Southwest Fwy Ste 115", "City": "Houston", "State": "TX", "Zip": 770741615, "formated_phone": "713-981-5900", "Status": "open", "Icon": "small_green", "Type": "Pharmacy" }, "geometry": { "type": "Point", "coordinates": [ -95.526747, 29.688195 ] } },
{ "type": "Feature", "properties": { "X": 29.643829, "Y": -95.60698, "Name": "Healix Infusion Therapy, LLC", "Address": "1330 Industrial Blvd Suite 100", "City": "Sugar Land", "State": "TX", "Zip": 77478, "formated_phone": "281-295-4343", "Status": "not participating", "Icon": "measle_white", "Type": "Pharmacy" }, "geometry": { "type": "Point", "coordinates": [ -95.60698, 29.643829 ] } },
{ "type": "Feature", "properties": { "X": 29.671263, "Y": -95.528322, "Name": "Leadcare Pharmacy Inc", "Address": "9908 S Gessner Drive", "City": "Houston", "State": "TX", "Zip": 77071, "formated_phone": "713-774-8180", "Status": "not participating", "Icon": "measle_white", "Type": "Pharmacy" }, "geometry": { "type": "Point", "coordinates": [ -95.528322, 29.671263 ] } },
{ "type": "Feature", "properties": { "X": 29.675323, "Y": -95.540743, "Name": "CHRISCO", "Address": "9623 southwest freeway", "City": "houston", "State": "TX", "Zip": 77074, "formated_phone": "713-776-8200", "Status": "not participating", "Icon": "measle_white", "Type": "Pharmacy" }, "geometry": { "type": "Point", "coordinates": [ -95.540743, 29.675323 ] } },
{ "type": "Feature", "properties": { "X": 29.717526, "Y": -95.477587, "Name": "PRIMECARE PHARMACY", "Address": "5900 Chimney Rock Rd Ste AC", "City": "Houston", "State": "TX", "Zip": 770812706, "formated_phone": "713-661-7746", "Status": "not participating", "Icon": "measle_white", "Type": "Pharmacy" }, "geometry": { "type": "Point", "coordinates": [ -95.477587, 29.717526 ] } },
{ "type": "Feature", "properties": { "X": 29.735759, "Y": -95.598619, "Name": "Hulen Pharmacy", "Address": "12303 Westheimer Rd # D", "City": "Houston", "State": "TX", "Zip": 77077, "formated_phone": "346-357-3482", "Status": "not participating", "Icon": "measle_white", "Type": "Pharmacy" }, "geometry": { "type": "Point", "coordinates": [ -95.598619, 29.735759 ] } },
{ "type": "Feature", "properties": { "X": 29.70938, "Y": -95.402035, "Name": "WALGREENS #13778", "Address": "6624 Fannin St Ste 120", "City": "Houston", "State": "TX", "Zip": 770302313, "formated_phone": "713-795-0199", "Status": "open", "Icon": "small_green", "Type": "Pharmacy" }, "geometry": { "type": "Point", "coordinates": [ -95.402035, 29.70938 ] } },
{ "type": "Feature", "properties": { "X": 29.664953, "Y": -95.521979, "Name": "CREEKBEND COMMUNITY PHARMACY", "Address": "8103 CREEKBEND DR STE G", "City": "Houston", "State": "TX", "Zip": 77071, "formated_phone": "713-773-2996", "Status": "not participating", "Icon": "measle_white", "Type": "Pharmacy" }, "geometry": { "type": "Point", "coordinates": [ -95.521979, 29.664953 ] } },
{ "type": "Feature", "properties": { "X": 29.696827, "Y": -95.413074, "Name": "SOUTHSIDE PHARMACY 3", "Address": "7700 Main St Ste 260", "City": "Houston", "State": "TX", "Zip": 770304456, "formated_phone": "832-553-1374", "Status": "open", "Icon": "small_green", "Type": "Pharmacy" }, "geometry": { "type": "Point", "coordinates": [ -95.413074, 29.696827 ] } },
{ "type": "Feature", "properties": { "X": 29.675028, "Y": -95.572365, "Name": "Proven Care Pharmacy, LLC", "Address": "10950 Bissonnet St Ste # 220", "City": "Houston", "State": "TX", "Zip": 770991707, "formated_phone": "281-983-9333", "Status": "not participating", "Icon": "measle_white", "Type": "Pharmacy" }, "geometry": { "type": "Point", "coordinates": [ -95.572365, 29.675028 ] } },
{ "type": "Feature", "properties": { "X": 29.647887, "Y": -95.566421, "Name": "NAHS PHARMACY", "Address": "12000 Wilcrest Dr Ste # 206", "City": "Houston", "State": "TX", "Zip": 770311924, "formated_phone": "281-498-5700", "Status": "open", "Icon": "small_green", "Type": "Pharmacy" }, "geometry": { "type": "Point", "coordinates": [ -95.566421, 29.647887 ] } },
{ "type": "Feature", "properties": { "X": 29.705966, "Y": -95.487588, "Name": "MEDEX PLUS, INC.", "Address": "6006 Bellaire Blvd Ste 111", "City": "Houston", "State": "TX", "Zip": 770815332, "formated_phone": "713-664-8800", "Status": "not participating", "Icon": "measle_white", "Type": "Pharmacy" }, "geometry": { "type": "Point", "coordinates": [ -95.487588, 29.705966 ] } },
{ "type": "Feature", "properties": { "X": 29.639721, "Y": -95.463418, "Name": "James Pharmacy", "Address": "12950 S. Post Oak", "City": "houston", "State": "TX", "Zip": 77045, "formated_phone": "713-721-3800", "Status": "not participating", "Icon": "measle_white", "Type": "Pharmacy" }, "geometry": { "type": "Point", "coordinates": [ -95.463418, 29.639721 ] } },
{ "type": "Feature", "properties": { "X": 29.705457, "Y": -95.510153, "Name": "LIFECARE PHARMACY", "Address": "7135 Southwest Fwy", "City": "Houston", "State": "TX", "Zip": 770742001, "formated_phone": "713-772-3000", "Status": "not participating", "Icon": "measle_white", "Type": "Pharmacy" }, "geometry": { "type": "Point", "coordinates": [ -95.510153, 29.705457 ] } },
{ "type": "Feature", "properties": { "X": 29.641519, "Y": -95.51968, "Name": "Bissonnet Discount Pharmacy", "Address": "8035 W Airport Ste 120", "City": "Houston", "State": "TX", "Zip": 77071, "formated_phone": "832-830-8846", "Status": "not participating", "Icon": "measle_white", "Type": "Pharmacy" }, "geometry": { "type": "Point", "coordinates": [ -95.51968, 29.641519 ] } },
{ "type": "Feature", "properties": { "X": 29.621524, "Y": -95.599048, "Name": "CVS Pharmacy #07285", "Address": "13829 SOUTHWEST FWY", "City": "SUGAR LAND", "State": "TX", "Zip": 77478, "formated_phone": "281-491-7551", "Status": "open", "Icon": "small_green", "Type": "Pharmacy" }, "geometry": { "type": "Point", "coordinates": [ -95.599048, 29.621524 ] } },
{ "type": "Feature", "properties": { "X": 29.749321, "Y": -95.518916, "Name": "WALGREENS #6239", "Address": "105 WEST RD", "City": "HOUSTON", "State": "TX", "Zip": 770371131, "formated_phone": "281-445-1308", "Status": "open", "Icon": "small_green", "Type": "Pharmacy" }, "geometry": { "type": "Point", "coordinates": [ -95.518916, 29.749321 ] } },
{ "type": "Feature", "properties": { "X": 29.742876, "Y": -95.390441, "Name": "WALGREENS #3157", "Address": "3317 MONTROSE BLVD", "City": "HOUSTON", "State": "TX", "Zip": 770063931, "formated_phone": "713-520-7777", "Status": "open", "Icon": "small_green", "Type": "Pharmacy" }, "geometry": { "type": "Point", "coordinates": [ -95.390441, 29.742876 ] } },
{ "type": "Feature", "properties": { "X": 29.736914, "Y": -95.571502, "Name": "WALGREENS #7251", "Address": "11038 WESTHEIMER RD", "City": "HOUSTON", "State": "TX", "Zip": 770423206, "formated_phone": "713-789-4847", "Status": "open", "Icon": "small_green", "Type": "Pharmacy" }, "geometry": { "type": "Point", "coordinates": [ -95.571502, 29.736914 ] } },
{ "type": "Feature", "properties": { "X": 29.684778, "Y": -95.29085, "Name": "WALGREENS #3082", "Address": "3900 Reveille St", "City": "HOUSTON", "State": "TX", "Zip": 770875526, "formated_phone": "713-644-1848", "Status": "open", "Icon": "small_green", "Type": "Pharmacy" }, "geometry": { "type": "Point", "coordinates": [ -95.29085, 29.684778 ] } },
{ "type": "Feature", "properties": { "X": 29.678852, "Y": -95.602752, "Name": "WALGREENS #3400", "Address": "9150 S DAIRY ASHFORD RD", "City": "HOUSTON", "State": "TX", "Zip": 770991218, "formated_phone": "281-498-3734", "Status": "open", "Icon": "small_green", "Type": "Pharmacy" }, "geometry": { "type": "Point", "coordinates": [ -95.602752, 29.678852 ] } },
{ "type": "Feature", "properties": { "X": 29.670788, "Y": -95.527186, "Name": "WALGREENS #4514", "Address": "8535 S BRAESWOOD BLVD", "City": "HOUSTON", "State": "TX", "Zip": 770711107, "formated_phone": "713-988-8764", "Status": "open", "Icon": "small_green", "Type": "Pharmacy" }, "geometry": { "type": "Point", "coordinates": [ -95.527186, 29.670788 ] } },
{ "type": "Feature", "properties": { "X": 29.737724, "Y": -95.602976, "Name": "WALGREENS #3407", "Address": "12550 WESTHEIMER RD", "City": "HOUSTON", "State": "TX", "Zip": 770775808, "formated_phone": "281-870-1130", "Status": "open", "Icon": "small_green", "Type": "Pharmacy" }, "geometry": { "type": "Point", "coordinates": [ -95.602976, 29.737724 ] } },
{ "type": "Feature", "properties": { "X": 29.717128, "Y": -95.500441, "Name": "THE PHARMACY", "Address": "6630 SW FWY", "City": "HOUSTON", "State": "TX", "Zip": 770742210, "formated_phone": "713-266-5425", "Status": "not participating", "Icon": "measle_white", "Type": "Pharmacy" }, "geometry": { "type": "Point", "coordinates": [ -95.500441, 29.717128 ] } },
{ "type": "Feature", "properties": { "X": 29.73741, "Y": -95.537733, "Name": "RANDALLS PHARMACY #2961", "Address": "9660 Westheimer Rd", "City": "HOUSTON", "State": "TX", "Zip": 770633205, "formated_phone": "713-706-3725", "Status": "open", "Icon": "small_green", "Type": "Pharmacy" }, "geometry": { "type": "Point", "coordinates": [ -95.537733, 29.73741 ] } },
{ "type": "Feature", "properties": { "X": 29.694298, "Y": -95.414362, "Name": "CVS Pharmacy #07402", "Address": "7900 S MAIN", "City": "HOUSTON", "State": "TX", "Zip": 770252807, "formated_phone": "713-660-8934", "Status": "open", "Icon": "small_green", "Type": "Pharmacy" }, "geometry": { "type": "Point", "coordinates": [ -95.414362, 29.694298 ] } },
{ "type": "Feature", "properties": { "X": 29.704433, "Y": -95.644852, "Name": "WALGREENS #3661", "Address": "6768 HIGHWAY 6 SOUTH", "City": "HOUSTON", "State": "TX", "Zip": 770831512, "formated_phone": "281-530-9768", "Status": "open", "Icon": "small_green", "Type": "Pharmacy" }, "geometry": { "type": "Point", "coordinates": [ -95.644852, 29.704433 ] } },
{ "type": "Feature", "properties": { "X": 29.651495, "Y": -95.618276, "Name": "CVS Pharmacy #07459", "Address": "2102 ELDRIDGE RD", "City": "SUGAR LAND", "State": "TX", "Zip": 77478, "formated_phone": "281-242-2890", "Status": "open", "Icon": "small_green", "Type": "Pharmacy" }, "geometry": { "type": "Point", "coordinates": [ -95.618276, 29.651495 ] } },
{ "type": "Feature", "properties": { "X": 29.678649, "Y": -95.643107, "Name": "KROGER PHARMACY", "Address": "9303 HWY 6 SOUTH", "City": "HOUSTON", "State": "TX", "Zip": 77083, "formated_phone": "713-474-2111", "Status": "not participating", "Icon": "measle_white", "Type": "Pharmacy" }, "geometry": { "type": "Point", "coordinates": [ -95.643107, 29.678649 ] } },
{ "type": "Feature", "properties": { "X": 29.742071, "Y": -95.374476, "Name": "MEMORIAL WELLNESS PHARMACY", "Address": "2918 SAN JACINTO ST", "City": "HOUSTON", "State": "TX", "Zip": 77004, "formated_phone": "713-523-7847", "Status": "not participating", "Icon": "measle_white", "Type": "Pharmacy" }, "geometry": { "type": "Point", "coordinates": [ -95.374476, 29.742071 ] } },
{ "type": "Feature", "properties": { "X": 29.687723, "Y": -95.570707, "Name": "WALGREENS #5390", "Address": "8300 WILCREST DR", "City": "HOUSTON", "State": "TX", "Zip": 770724326, "formated_phone": "281-530-6210", "Status": "open", "Icon": "small_green", "Type": "Pharmacy" }, "geometry": { "type": "Point", "coordinates": [ -95.570707, 29.687723 ] } },
{ "type": "Feature", "properties": { "X": 29.706693, "Y": -95.493223, "Name": "WALGREENS #1580", "Address": "6730 HILLCROFT ST", "City": "HOUSTON", "State": "TX", "Zip": 770814804, "formated_phone": "713-988-6407", "Status": "open", "Icon": "small_green", "Type": "Pharmacy" }, "geometry": { "type": "Point", "coordinates": [ -95.493223, 29.706693 ] } },
{ "type": "Feature", "properties": { "X": 29.741422, "Y": -95.441344, "Name": "WALGREENS #16293", "Address": "3745 WESTHEIMER RD", "City": "HOUSTON", "State": "TX", "Zip": 770275227, "formated_phone": "713-629-0703", "Status": "open", "Icon": "small_green", "Type": "Pharmacy" }, "geometry": { "type": "Point", "coordinates": [ -95.441344, 29.741422 ] } },
{ "type": "Feature", "properties": { "X": 29.735953, "Y": -95.389481, "Name": "CVS Pharmacy #07448", "Address": "815 W MAIN ST", "City": "TOMBALL", "State": "TX", "Zip": 77375, "formated_phone": "281-255-8265", "Status": "open", "Icon": "small_green", "Type": "Pharmacy" }, "geometry": { "type": "Point", "coordinates": [ -95.389481, 29.735953 ] } },
{ "type": "Feature", "properties": { "X": 29.72116, "Y": -95.646466, "Name": "WALMART PHARMACY 10-0772", "Address": "3506 S HWY 6 SOUTH", "City": "HOUSTON", "State": "TX", "Zip": 77082, "formated_phone": "281-561-0846", "Status": "open", "Icon": "small_green", "Type": "Pharmacy" }, "geometry": { "type": "Point", "coordinates": [ -95.646466, 29.72116 ] } },
{ "type": "Feature", "properties": { "X": 29.770237, "Y": -95.416896, "Name": "CVS Pharmacy #07476", "Address": "5401 WASHINGTON AVE", "City": "HOUSTON", "State": "TX", "Zip": 77007, "formated_phone": "713-861-3883", "Status": "open", "Icon": "small_green", "Type": "Pharmacy" }, "geometry": { "type": "Point", "coordinates": [ -95.416896, 29.770237 ] } },
{ "type": "Feature", "properties": { "X": 29.721643, "Y": -95.44234, "Name": "RANDALLS PHARMACY #4033", "Address": "5586 WESLAYAN", "City": "HOUSTON", "State": "TX", "Zip": 770051965, "formated_phone": "713-668-9820", "Status": "open", "Icon": "small_green", "Type": "Pharmacy" }, "geometry": { "type": "Point", "coordinates": [ -95.44234, 29.721643 ] } },
{ "type": "Feature", "properties": { "X": 29.644076, "Y": -95.573053, "Name": "WALMART PHARMACY 10-0915", "Address": "11210 W AIRPORT BLVD", "City": "STAFFORD", "State": "TX", "Zip": 77477, "formated_phone": "281-933-5252", "Status": "open", "Icon": "small_green", "Type": "Pharmacy" }, "geometry": { "type": "Point", "coordinates": [ -95.573053, 29.644076 ] } },
{ "type": "Feature", "properties": { "X": 29.70675, "Y": -95.467274, "Name": "WALGREENS #5835", "Address": "5002 BELLAIRE BLVD", "City": "BELLAIRE", "State": "TX", "Zip": 774014002, "formated_phone": "713-663-6636", "Status": "open", "Icon": "small_green", "Type": "Pharmacy" }, "geometry": { "type": "Point", "coordinates": [ -95.467274, 29.70675 ] } },
{ "type": "Feature", "properties": { "X": 29.742975, "Y": -95.392103, "Name": "KROGER PHARMACY", "Address": "3300 MONTROSE BLVD", "City": "HOUSTON", "State": "TX", "Zip": 77006, "formated_phone": "713-526-1239", "Status": "not participating", "Icon": "measle_white", "Type": "Pharmacy" }, "geometry": { "type": "Point", "coordinates": [ -95.392103, 29.742975 ] } },
{ "type": "Feature", "properties": { "X": 29.7233, "Y": -95.388443, "Name": "PARK PLAZA PHARMACY", "Address": "1213 HERMANN DR STE 140", "City": "HOUSTON", "State": "TX", "Zip": 77004, "formated_phone": "713-524-2828", "Status": "open", "Icon": "small_green", "Type": "Pharmacy" }, "geometry": { "type": "Point", "coordinates": [ -95.388443, 29.7233 ] } },
{ "type": "Feature", "properties": { "X": 29.671679, "Y": -95.459014, "Name": "RANDALLS PHARMACY #1041", "Address": "4800 W BELLFORT BLVD", "City": "HOUSTON", "State": "TX", "Zip": 770353400, "formated_phone": "713-721-0052", "Status": "open", "Icon": "small_green", "Type": "Pharmacy" }, "geometry": { "type": "Point", "coordinates": [ -95.459014, 29.671679 ] } },
{ "type": "Feature", "properties": { "X": 29.74492, "Y": -95.366323, "Name": "MEDICAL PLAZA PHARMACY", "Address": "2101 CRAWFORD ST", "City": "HOUSTON", "State": "TX", "Zip": 770028913, "formated_phone": "713-654-4137", "Status": "not participating", "Icon": "measle_white", "Type": "Pharmacy" }, "geometry": { "type": "Point", "coordinates": [ -95.366323, 29.74492 ] } },
{ "type": "Feature", "properties": { "X": 29.706547, "Y": -95.699498, "Name": "KELSEY PHARMACY - KATY", "Address": "22121 Fm 1093 Rd", "City": "Richmond", "State": "TX", "Zip": 774072140, "formated_phone": "713-442-4179", "Status": "unknown", "Icon": "small_yellow", "Type": "Pharmacy" }, "geometry": { "type": "Point", "coordinates": [ -95.699498, 29.706547 ] } },
{ "type": "Feature", "properties": { "X": 29.717958, "Y": -95.418118, "Name": "CVS Pharmacy #07479", "Address": "6011 KIRBY DR", "City": "HOUSTON", "State": "TX", "Zip": 77005, "formated_phone": "713-522-3983", "Status": "open", "Icon": "small_green", "Type": "Pharmacy" }, "geometry": { "type": "Point", "coordinates": [ -95.418118, 29.717958 ] } },
{ "type": "Feature", "properties": { "X": 29.750542, "Y": -95.49912, "Name": "CVS Pharmacy #07486", "Address": "6532 SAN FELIPE RD", "City": "HOUSTON", "State": "TX", "Zip": 77057, "formated_phone": "713-789-1681", "Status": "open", "Icon": "small_green", "Type": "Pharmacy" }, "geometry": { "type": "Point", "coordinates": [ -95.49912, 29.750542 ] } },
{ "type": "Feature", "properties": { "X": 29.754052, "Y": -95.340644, "Name": "AMEX UNITED DRUG", "Address": "3030 CANAL ST", "City": "HOUSTON", "State": "TX", "Zip": 770031696, "formated_phone": "713-237-9301", "Status": "open", "Icon": "small_green", "Type": "Pharmacy" }, "geometry": { "type": "Point", "coordinates": [ -95.340644, 29.754052 ] } },
{ "type": "Feature", "properties": { "X": 29.705986, "Y": -95.532564, "Name": "SOUTHWEST PHARMACY", "Address": "8282 Bellaire Blvd Ste 154A", "City": "HOUSTON", "State": "TX", "Zip": 77036, "formated_phone": "713-270-7366", "Status": "open", "Icon": "small_green", "Type": "Pharmacy" }, "geometry": { "type": "Point", "coordinates": [ -95.532564, 29.705986 ] } },
{ "type": "Feature", "properties": { "X": 29.660121, "Y": -95.389206, "Name": "BRX", "Address": "9100 Southwest Fwy Ste 133", "City": "Houston", "State": "TX", "Zip": 770741584, "formated_phone": "713-777-6251", "Status": "not participating", "Icon": "measle_white", "Type": "Pharmacy" }, "geometry": { "type": "Point", "coordinates": [ -95.389206, 29.660121 ] } },
{ "type": "Feature", "properties": { "X": 29.70535, "Y": -95.544526, "Name": "EVERGREEN PHARMACY", "Address": "9180 BELLAIRE BLVD STE A", "City": "HOUSTON", "State": "TX", "Zip": 77036, "formated_phone": "713-541-1234", "Status": "open", "Icon": "small_green", "Type": "Pharmacy" }, "geometry": { "type": "Point", "coordinates": [ -95.544526, 29.70535 ] } },
{ "type": "Feature", "properties": { "X": 29.669049, "Y": -95.412401, "Name": "ACCREDO HEALTH GROUP INC", "Address": "9307 KIRBY DR", "City": "HOUSTON", "State": "TX", "Zip": 77054, "formated_phone": "713-791-1552", "Status": "open", "Icon": "small_green", "Type": "Pharmacy" }, "geometry": { "type": "Point", "coordinates": [ -95.412401, 29.669049 ] } },
{ "type": "Feature", "properties": { "X": 29.68909, "Y": -95.57188, "Name": "LOTUS PHARMACY", "Address": "8200 WILCREST DR., SUITE 8", "City": "HOUSTON", "State": "TX", "Zip": 770724328, "formated_phone": "281-983-9382", "Status": "open", "Icon": "small_green", "Type": "Pharmacy" }, "geometry": { "type": "Point", "coordinates": [ -95.57188, 29.68909 ] } },
{ "type": "Feature", "properties": { "X": 29.702989, "Y": -95.612866, "Name": "TN PHARMACY", "Address": "12989 BELLAIRE BLVD STE 1A", "City": "HOUSTON", "State": "TX", "Zip": 77072, "formated_phone": "281-561-0101", "Status": "unknown", "Icon": "small_yellow", "Type": "Pharmacy" }, "geometry": { "type": "Point", "coordinates": [ -95.612866, 29.702989 ] } },
{ "type": "Feature", "properties": { "X": 29.736115, "Y": -95.307241, "Name": "WALGREENS #2809", "Address": "220 SOUTH WAYSIDE DR", "City": "HOUSTON", "State": "TX", "Zip": 770114632, "formated_phone": "713-924-6963", "Status": "open", "Icon": "small_green", "Type": "Pharmacy" }, "geometry": { "type": "Point", "coordinates": [ -95.307241, 29.736115 ] } },
{ "type": "Feature", "properties": { "X": 29.723124, "Y": -95.379377, "Name": "WALGREENS #2844", "Address": "5202 ALMEDA RD", "City": "HOUSTON", "State": "TX", "Zip": 770045909, "formated_phone": "713-529-5922", "Status": "open", "Icon": "small_green", "Type": "Pharmacy" }, "geometry": { "type": "Point", "coordinates": [ -95.379377, 29.723124 ] } },
{ "type": "Feature", "properties": { "X": 29.706126, "Y": -95.470205, "Name": "RANDALLS PHARMACY #3064", "Address": "5130 BELLAIRE BLVD", "City": "BELLAIRE", "State": "TX", "Zip": 774014003, "formated_phone": "713-667-3912", "Status": "open", "Icon": "small_green", "Type": "Pharmacy" }, "geometry": { "type": "Point", "coordinates": [ -95.470205, 29.706126 ] } },
{ "type": "Feature", "properties": { "X": 29.698569, "Y": -95.316171, "Name": "GROVEWAY PHARMACY", "Address": "4501 GROVEWAY", "City": "HOUSTON", "State": "TX", "Zip": 77087, "formated_phone": "713-644-9400", "Status": "open", "Icon": "small_green", "Type": "Pharmacy" }, "geometry": { "type": "Point", "coordinates": [ -95.316171, 29.698569 ] } },
{ "type": "Feature", "properties": { "X": 29.694427, "Y": -95.32758, "Name": "C & L Pharmacy", "Address": "5600 MYKAWA INSIDE FIESTA MART STORE", "City": "HOUSTON", "State": "TX", "Zip": 770331009, "formated_phone": "713-641-3414", "Status": "open", "Icon": "small_green", "Type": "Pharmacy" }, "geometry": { "type": "Point", "coordinates": [ -95.32758, 29.694427 ] } },
{ "type": "Feature", "properties": { "X": 29.735531, "Y": -95.511711, "Name": "WALMART PHARMACY 10-2066", "Address": "2727 DUNVALE ROAD", "City": "HOUSTON", "State": "TX", "Zip": 77063, "formated_phone": "713-977-2570", "Status": "open", "Icon": "small_green", "Type": "Pharmacy" }, "geometry": { "type": "Point", "coordinates": [ -95.511711, 29.735531 ] } },
{ "type": "Feature", "properties": { "X": 29.708215, "Y": -95.492948, "Name": "LA PLAZA PHARMACY-1", "Address": "6655 HILLCROFT STE 108", "City": "HOUSTON", "State": "TX", "Zip": 770814801, "formated_phone": "713-644-9400", "Status": "open", "Icon": "small_green", "Type": "Pharmacy" }, "geometry": { "type": "Point", "coordinates": [ -95.492948, 29.708215 ] } },
{ "type": "Feature", "properties": { "X": 29.739548, "Y": -95.471156, "Name": "CVS Pharmacy #07753", "Address": "5402 WESTHEIMER RD STE K", "City": "HOUSTON", "State": "TX", "Zip": 77056, "formated_phone": "713-877-1479", "Status": "open", "Icon": "small_green", "Type": "Pharmacy" }, "geometry": { "type": "Point", "coordinates": [ -95.471156, 29.739548 ] } },
{ "type": "Feature", "properties": { "X": 29.747775, "Y": -95.366112, "Name": "MAXOR PHARMACIES", "Address": "1919 La Branch St GWS 2227", "City": "HOUSTON", "State": "TX", "Zip": 77002, "formated_phone": "713-756-5300", "Status": "open", "Icon": "small_green", "Type": "Pharmacy" }, "geometry": { "type": "Point", "coordinates": [ -95.366112, 29.747775 ] } },
{ "type": "Feature", "properties": { "X": 29.669291, "Y": -95.463939, "Name": "KROGER PHARMACY", "Address": "10306 S POST OAK RD", "City": "HOUSTON", "State": "TX", "Zip": 77035, "formated_phone": "713-729-5161", "Status": "not participating", "Icon": "measle_white", "Type": "Pharmacy" }, "geometry": { "type": "Point", "coordinates": [ -95.463939, 29.669291 ] } },
{ "type": "Feature", "properties": { "X": 29.748259, "Y": -95.500107, "Name": "KROGER PHARMACY", "Address": "1801 SOUTH VOSS ROAD", "City": "HOUSTON", "State": "TX", "Zip": 77057, "formated_phone": "713-780-7643", "Status": "not participating", "Icon": "measle_white", "Type": "Pharmacy" }, "geometry": { "type": "Point", "coordinates": [ -95.500107, 29.748259 ] } },
{ "type": "Feature", "properties": { "X": 29.601565, "Y": -95.581432, "Name": "WALGREENS #3419", "Address": "4790 LEXINGTON BLVD", "City": "MISSOURI CITY", "State": "TX", "Zip": 774592800, "formated_phone": "281-499-5257", "Status": "open", "Icon": "small_green", "Type": "Pharmacy" }, "geometry": { "type": "Point", "coordinates": [ -95.581432, 29.601565 ] } },
{ "type": "Feature", "properties": { "X": 29.704868, "Y": -95.425949, "Name": "RANDALLS PHARMACY #1061", "Address": "3131 W HOLCOMBE BLVD", "City": "HOUSTON", "State": "TX", "Zip": 770251533, "formated_phone": "713-349-2160", "Status": "open", "Icon": "small_green", "Type": "Pharmacy" }, "geometry": { "type": "Point", "coordinates": [ -95.425949, 29.704868 ] } },
{ "type": "Feature", "properties": { "X": 29.705289, "Y": -95.460966, "Name": "ReCept Pharmacy #33", "Address": "4747 Bellaire Blvd Ste 135", "City": "Bellaire", "State": "TX", "Zip": 761073356, "formated_phone": "832-426-1520", "Status": "open", "Icon": "small_green", "Type": "Pharmacy" }, "geometry": { "type": "Point", "coordinates": [ -95.460966, 29.705289 ] } },
{ "type": "Feature", "properties": { "X": 29.705965, "Y": -95.520816, "Name": "WALGREENS #3198", "Address": "7634 BELLAIRE BLVD", "City": "HOUSTON", "State": "TX", "Zip": 770365806, "formated_phone": "713-774-2180", "Status": "open", "Icon": "small_green", "Type": "Pharmacy" }, "geometry": { "type": "Point", "coordinates": [ -95.520816, 29.705965 ] } },
{ "type": "Feature", "properties": { "X": 29.703672, "Y": -95.577563, "Name": "MEDCARE PHARMACY", "Address": "11322 Bellaire Blvd Ste 116", "City": "Houston", "State": "TX", "Zip": 770725700, "formated_phone": "281-561-0088", "Status": "open", "Icon": "small_green", "Type": "Pharmacy" }, "geometry": { "type": "Point", "coordinates": [ -95.577563, 29.703672 ] } },
{ "type": "Feature", "properties": { "X": 29.678789, "Y": -95.526062, "Name": "SAMS PHARMACY", "Address": "8300 BISSONNET ST STE 100", "City": "HOUSTON", "State": "TX", "Zip": 77074, "formated_phone": "713-779-2100", "Status": "not participating", "Icon": "measle_white", "Type": "Pharmacy" }, "geometry": { "type": "Point", "coordinates": [ -95.526062, 29.678789 ] } },
{ "type": "Feature", "properties": { "X": 29.674957, "Y": -95.290992, "Name": "KROGER PHARMACY", "Address": "6322 TELEPHONE RD", "City": "HOUSTON", "State": "TX", "Zip": 77087, "formated_phone": "713-644-1815", "Status": "not participating", "Icon": "measle_white", "Type": "Pharmacy" }, "geometry": { "type": "Point", "coordinates": [ -95.290992, 29.674957 ] } },
{ "type": "Feature", "properties": { "X": 29.645796, "Y": -95.46265, "Name": "POWER CENTER PHARMACY", "Address": "12401 S POST OAK RD STE E", "City": "HOUSTON", "State": "TX", "Zip": 77045, "formated_phone": "713-731-3303", "Status": "not participating", "Icon": "measle_white", "Type": "Pharmacy" }, "geometry": { "type": "Point", "coordinates": [ -95.46265, 29.645796 ] } },
{ "type": "Feature", "properties": { "X": 29.771385, "Y": -95.404355, "Name": "TOTAL PHARMACY CENTER ONE", "Address": "4302 CENTER ST", "City": "HOUSTON", "State": "TX", "Zip": 77007, "formated_phone": "713-864-0808", "Status": "not participating", "Icon": "measle_white", "Type": "Pharmacy" }, "geometry": { "type": "Point", "coordinates": [ -95.404355, 29.771385 ] } },
{ "type": "Feature", "properties": { "X": 29.740976, "Y": -95.467733, "Name": "WALGREENS #4027", "Address": "5200 WESTHEIMER RD", "City": "HOUSTON", "State": "TX", "Zip": 770565413, "formated_phone": "713-623-0643", "Status": "open", "Icon": "small_green", "Type": "Pharmacy" }, "geometry": { "type": "Point", "coordinates": [ -95.467733, 29.740976 ] } },
{ "type": "Feature", "properties": { "X": 29.749061, "Y": -95.465924, "Name": "RANDALLS PHARMACY #3067", "Address": "5161 SAN FELIPE", "City": "HOUSTON", "State": "TX", "Zip": 770563633, "formated_phone": "713-964-3154", "Status": "open", "Icon": "small_green", "Type": "Pharmacy" }, "geometry": { "type": "Point", "coordinates": [ -95.465924, 29.749061 ] } },
{ "type": "Feature", "properties": { "X": 29.679441, "Y": -95.421692, "Name": "MED VALT PHARMACY LLC", "Address": "2656 S Loop W Ste 103", "City": "HOUSTON", "State": "TX", "Zip": 770545632, "formated_phone": "713-349-9882", "Status": "open", "Icon": "small_green", "Type": "Pharmacy" }, "geometry": { "type": "Point", "coordinates": [ -95.421692, 29.679441 ] } },
{ "type": "Feature", "properties": { "X": 29.724122, "Y": -95.500915, "Name": "PREFERRED PHARMACY", "Address": "3939 Hillcroft St Ste 120", "City": "Houston", "State": "TX", "Zip": 770577733, "formated_phone": "713-465-8100", "Status": "open", "Icon": "small_green", "Type": "Pharmacy" }, "geometry": { "type": "Point", "coordinates": [ -95.500915, 29.724122 ] } },
{ "type": "Feature", "properties": { "X": 29.653762, "Y": -95.566851, "Name": "Medsaver Pharmacy", "Address": "10701 W Bellfort St Ste B # 172", "City": "Houston", "State": "TX", "Zip": 770994748, "formated_phone": "281-988-0880", "Status": "unknown", "Icon": "small_yellow", "Type": "Pharmacy" }, "geometry": { "type": "Point", "coordinates": [ -95.566851, 29.653762 ] } },
{ "type": "Feature", "properties": { "X": 29.714345, "Y": -95.495161, "Name": "D&G Pharmacy", "Address": "6121 Hillcroft St Ste J", "City": "HOUSTON", "State": "TX", "Zip": 770811007, "formated_phone": "832-968-4211", "Status": "unknown", "Icon": "small_yellow", "Type": "Pharmacy" }, "geometry": { "type": "Point", "coordinates": [ -95.495161, 29.714345 ] } },
{ "type": "Feature", "properties": { "X": 29.692505, "Y": -95.49253, "Name": "First Choice Pharmacy", "Address": "7909 Hillcroft St, Suite B", "City": "Houston", "State": "TX", "Zip": 77081, "formated_phone": "713-779-7603", "Status": "open", "Icon": "small_green", "Type": "Pharmacy" }, "geometry": { "type": "Point", "coordinates": [ -95.49253, 29.692505 ] } },
{ "type": "Feature", "properties": { "X": 29.691911, "Y": -95.528156, "Name": "Trace Pharmacy", "Address": "8104 Southwest Fwy Ste B", "City": "Houston", "State": "TX", "Zip": 770741704, "formated_phone": "713-981-6600", "Status": "unknown", "Icon": "small_yellow", "Type": "Pharmacy" }, "geometry": { "type": "Point", "coordinates": [ -95.528156, 29.691911 ] } },
{ "type": "Feature", "properties": { "X": 29.663261, "Y": -95.553382, "Name": "Memorial Pharmacy", "Address": "10101 Southwest Fwy Ste 315", "City": "Houston", "State": "TX", "Zip": 770741111, "formated_phone": "832-358-8500", "Status": "open", "Icon": "small_green", "Type": "Pharmacy" }, "geometry": { "type": "Point", "coordinates": [ -95.553382, 29.663261 ] } },
{ "type": "Feature", "properties": { "X": 29.734991, "Y": -95.593828, "Name": "Medic Pharmacy", "Address": "12121 Westheimer Rd.", "City": "Houston", "State": "TX", "Zip": 77077, "formated_phone": "281-531-5965", "Status": "open", "Icon": "small_green", "Type": "Pharmacy" }, "geometry": { "type": "Point", "coordinates": [ -95.593828, 29.734991 ] } },
{ "type": "Feature", "properties": { "X": 29.690863, "Y": -95.299257, "Name": "Fairway Pharmacy", "Address": "4912 Telephone Road", "City": "Houston", "State": "TX", "Zip": 77087, "formated_phone": "713-454-0211", "Status": "open", "Icon": "small_green", "Type": "Pharmacy" }, "geometry": { "type": "Point", "coordinates": [ -95.299257, 29.690863 ] } },
{ "type": "Feature", "properties": { "X": 29.733022, "Y": -95.419335, "Name": "ExperienceCare Specialty Pharmacy", "Address": "3730 Kirby Dr Ste 210", "City": "Houston", "State": "TX", "Zip": 770983930, "formated_phone": "713-524-3330", "Status": "open", "Icon": "small_green", "Type": "Pharmacy" }, "geometry": { "type": "Point", "coordinates": [ -95.419335, 29.733022 ] } },
{ "type": "Feature", "properties": { "X": 29.674295, "Y": -95.578717, "Name": "Eagle Pharmacy", "Address": "11329 Bissonnet street", "City": "Houston", "State": "TX", "Zip": 77099, "formated_phone": "346-888-6000", "Status": "not participating", "Icon": "measle_white", "Type": "Pharmacy" }, "geometry": { "type": "Point", "coordinates": [ -95.578717, 29.674295 ] } },
{ "type": "Feature", "properties": { "X": 29.707242, "Y": -95.460847, "Name": "Pin Oak Pharmacy", "Address": "6700 West Loop S Ste 325", "City": "Bellaire", "State": "TX", "Zip": 774014104, "formated_phone": "713-668-8686", "Status": "unknown", "Icon": "small_yellow", "Type": "Pharmacy" }, "geometry": { "type": "Point", "coordinates": [ -95.460847, 29.707242 ] } },
{ "type": "Feature", "properties": { "X": 29.699485, "Y": -95.483113, "Name": "Westlands Pharmacy", "Address": "5819 Bissonnet St", "City": "Bellaire", "State": "TX", "Zip": 774014719, "formated_phone": "713-664-1400", "Status": "not participating", "Icon": "measle_white", "Type": "Pharmacy" }, "geometry": { "type": "Point", "coordinates": [ -95.483113, 29.699485 ] } },
{ "type": "Feature", "properties": { "X": 29.682661, "Y": -95.716101, "Name": "mariste pharmacy", "Address": "8710 Grand Mission Blvd Ste H", "City": "Richmond", "State": "TX", "Zip": 77407, "formated_phone": "713-234-7190", "Status": "not participating", "Icon": "measle_white", "Type": "Pharmacy" }, "geometry": { "type": "Point", "coordinates": [ -95.716101, 29.682661 ] } },
{ "type": "Feature", "properties": { "X": 29.674132, "Y": -95.550546, "Name": "Baijes Bissonnet Pharmacy", "Address": "9801 Bissonnet St Ste F", "City": "Houston", "State": "TX", "Zip": 770368224, "formated_phone": "281-974-3573", "Status": "not participating", "Icon": "measle_white", "Type": "Pharmacy" }, "geometry": { "type": "Point", "coordinates": [ -95.550546, 29.674132 ] } },
{ "type": "Feature", "properties": { "X": 29.737908, "Y": -95.342016, "Name": "MobileCare Pharmacy", "Address": "3918 Leeland Street", "City": "Houston", "State": "TX", "Zip": 77003, "formated_phone": "713-600-0075", "Status": "not participating", "Icon": "measle_white", "Type": "Pharmacy" }, "geometry": { "type": "Point", "coordinates": [ -95.342016, 29.737908 ] } },
{ "type": "Feature", "properties": { "X": 29.620471, "Y": -95.569078, "Name": "Health Check Pharmacy", "Address": "3623 S MAIN ST, STE 110", "City": "STAFFORD", "State": "TX", "Zip": 77477, "formated_phone": "281-201-8232", "Status": "open", "Icon": "small_green", "Type": "Pharmacy" }, "geometry": { "type": "Point", "coordinates": [ -95.569078, 29.620471 ] } },
{ "type": "Feature", "properties": { "X": 29.686458, "Y": -95.341874, "Name": "Patient Care Pharmacy", "Address": "6366 Martin Luther King Jr Blvd", "City": "Houston", "State": "TX", "Zip": 770214421, "formated_phone": "281-501-2325", "Status": "not participating", "Icon": "measle_white", "Type": "Pharmacy" }, "geometry": { "type": "Point", "coordinates": [ -95.341874, 29.686458 ] } },
{ "type": "Feature", "properties": { "X": 29.705294, "Y": -95.460045, "Name": "ST. HOPE PHARMACY", "Address": "6800 West Loop S Ste 590", "City": "Bellaire", "State": "TX", "Zip": 774014516, "formated_phone": "832-319-7610", "Status": "open", "Icon": "small_green", "Type": "Pharmacy" }, "geometry": { "type": "Point", "coordinates": [ -95.460045, 29.705294 ] } },
{ "type": "Feature", "properties": { "X": 29.740601, "Y": -95.304983, "Name": "Medrx Compounding & Pharmacy Limited Company", "Address": "601 Wayside Dr Ste D", "City": "Houston", "State": "TX", "Zip": 770113614, "formated_phone": "832-767-5466", "Status": "open", "Icon": "small_green", "Type": "Pharmacy" }, "geometry": { "type": "Point", "coordinates": [ -95.304983, 29.740601 ] } },
{ "type": "Feature", "properties": { "X": 29.706185, "Y": -95.488402, "Name": "AWESOME CARE PHARMACY", "Address": "6060 BELLAIRE BLVD STE J", "City": "HOUSTON", "State": "TX", "Zip": 77081, "formated_phone": "281-501-1008", "Status": "not participating", "Icon": "measle_white", "Type": "Pharmacy" }, "geometry": { "type": "Point", "coordinates": [ -95.488402, 29.706185 ] } },
{ "type": "Feature", "properties": { "X": 29.718411, "Y": -95.518894, "Name": "Medplus Rx Inc.", "Address": "7636 Harwin Dr. Ste. C-319", "City": "Houston", "State": "TX", "Zip": 770362675, "formated_phone": "713-779-5400", "Status": "open", "Icon": "small_green", "Type": "Pharmacy" }, "geometry": { "type": "Point", "coordinates": [ -95.518894, 29.718411 ] } },
{ "type": "Feature", "properties": { "X": 29.598309, "Y": -95.526038, "Name": "AMAZING GRACE PHARMACY", "Address": "1965 Texas Pkwy", "City": "Missouri City", "State": "TX", "Zip": 774893121, "formated_phone": "832-230-0169", "Status": "open", "Icon": "small_green", "Type": "Pharmacy" }, "geometry": { "type": "Point", "coordinates": [ -95.526038, 29.598309 ] } },
{ "type": "Feature", "properties": { "X": 29.706723, "Y": -95.483721, "Name": "LIFE PHARMACY LLC", "Address": "5800 BELLAIRE BLVD SUITE 100", "City": "HOUSTON", "State": "TX", "Zip": 77081, "formated_phone": "713-665-5050", "Status": "unknown", "Icon": "small_yellow", "Type": "Pharmacy" }, "geometry": { "type": "Point", "coordinates": [ -95.483721, 29.706723 ] } },
{ "type": "Feature", "properties": { "X": 29.734416, "Y": -95.299344, "Name": "Dollar Value Pharmacy", "Address": "7118 harrisburg Blvd", "City": "Houston", "State": "TX", "Zip": 77011, "formated_phone": "281-568-1545", "Status": "not participating", "Icon": "measle_white", "Type": "Pharmacy" }, "geometry": { "type": "Point", "coordinates": [ -95.299344, 29.734416 ] } },
{ "type": "Feature", "properties": { "X": 29.675236, "Y": -95.509063, "Name": "MEDEX PHARMACY", "Address": "9600 FONDREN RD #B3", "City": "HOUSTON", "State": "TX", "Zip": 77096, "formated_phone": "713-771-3800", "Status": "not participating", "Icon": "measle_white", "Type": "Pharmacy" }, "geometry": { "type": "Point", "coordinates": [ -95.509063, 29.675236 ] } },
{ "type": "Feature", "properties": { "X": 29.688313, "Y": -95.57749, "Name": "PRECIOUS PLACE'S PHARMACY", "Address": "11336 Beechnut St Ste A8", "City": "Houston", "State": "TX", "Zip": 770724212, "formated_phone": "281-760-3660", "Status": "not participating", "Icon": "measle_white", "Type": "Pharmacy" }, "geometry": { "type": "Point", "coordinates": [ -95.57749, 29.688313 ] } },
{ "type": "Feature", "properties": { "X": 29.755278, "Y": -95.363054, "Name": "KELSEY PHARMACY - HOUSTON CENTER", "Address": "1200 Mckinney St Ste 417", "City": "Houston", "State": "TX", "Zip": 770102000, "formated_phone": "713-442-6337", "Status": "not participating", "Icon": "measle_white", "Type": "Pharmacy" }, "geometry": { "type": "Point", "coordinates": [ -95.363054, 29.755278 ] } },
{ "type": "Feature", "properties": { "X": 29.691776, "Y": -95.642556, "Name": "Falcon Pharmacy of Texas Inc", "Address": "8145 Highway 6 S Ste 114A", "City": "Houston", "State": "TX", "Zip": 770835763, "formated_phone": "281-776-9600", "Status": "not participating", "Icon": "measle_white", "Type": "Pharmacy" }, "geometry": { "type": "Point", "coordinates": [ -95.642556, 29.691776 ] } },
{ "type": "Feature", "properties": { "X": 29.716739, "Y": -95.546465, "Name": "A PLUS Pharmacy", "Address": "10301 Harwin Dr Ste 3", "City": "Houston", "State": "TX", "Zip": 770362793, "formated_phone": "346-352-4930", "Status": "not participating", "Icon": "measle_white", "Type": "Pharmacy" }, "geometry": { "type": "Point", "coordinates": [ -95.546465, 29.716739 ] } },
{ "type": "Feature", "properties": { "X": 29.737515, "Y": -95.307502, "Name": "Trinity Med RX", "Address": "6723 Harrisburg Blvd", "City": "Houston", "State": "TX", "Zip": 77011, "formated_phone": "713-874-1777", "Status": "not participating", "Icon": "measle_white", "Type": "Pharmacy" }, "geometry": { "type": "Point", "coordinates": [ -95.307502, 29.737515 ] } },
{ "type": "Feature", "properties": { "X": 29.744494, "Y": -95.365258, "Name": "MIDTOWN SPECIALTY RX", "Address": "1701 Webster St Ste D", "City": "Houston", "State": "TX", "Zip": 770035800, "formated_phone": "713-874-9190", "Status": "unknown", "Icon": "small_yellow", "Type": "Pharmacy" }, "geometry": { "type": "Point", "coordinates": [ -95.365258, 29.744494 ] } },
{ "type": "Feature", "properties": { "X": 29.642574, "Y": -95.52828, "Name": "Excel Pharmacy INC", "Address": "8600 W Airport Blvd Ste B", "City": "Houston", "State": "TX", "Zip": 770712483, "formated_phone": "713-995-1272", "Status": "unknown", "Icon": "small_yellow", "Type": "Pharmacy" }, "geometry": { "type": "Point", "coordinates": [ -95.52828, 29.642574 ] } },
{ "type": "Feature", "properties": { "X": 29.692663, "Y": -95.400696, "Name": "TX RX Solutions & Compounding Pharmacy", "Address": "7501 Fannin st  ste 701", "City": "Houston", "State": "TX", "Zip": 77054, "formated_phone": "713-790-1222", "Status": "open", "Icon": "small_green", "Type": "Pharmacy" }, "geometry": { "type": "Point", "coordinates": [ -95.400696, 29.692663 ] } },
{ "type": "Feature", "properties": { "X": 29.711537, "Y": -95.400156, "Name": "Walgreens #15086", "Address": "6560 FANNIN ST STE 260", "City": "HOUSTON", "State": "TX", "Zip": 770302706, "formated_phone": "713-797-1410", "Status": "open", "Icon": "small_green", "Type": "Pharmacy" }, "geometry": { "type": "Point", "coordinates": [ -95.400156, 29.711537 ] } },
{ "type": "Feature", "properties": { "X": 29.647243, "Y": -95.459592, "Name": "Botica Familiar Pharmacy", "Address": "12333 South Main Street", "City": "Houston", "State": "TX", "Zip": 77035, "formated_phone": "713-918-6402", "Status": "unknown", "Icon": "small_yellow", "Type": "Pharmacy" }, "geometry": { "type": "Point", "coordinates": [ -95.459592, 29.647243 ] } },
{ "type": "Feature", "properties": { "X": 29.702643, "Y": -95.652433, "Name": "GODERICH PHARMACY", "Address": "15000 Bellaire Blvd Ste D", "City": "HOUSTON", "State": "TX", "Zip": 77083, "formated_phone": "346-219-0344", "Status": "not participating", "Icon": "measle_white", "Type": "Pharmacy" }, "geometry": { "type": "Point", "coordinates": [ -95.652433, 29.702643 ] } },
{ "type": "Feature", "properties": { "X": 29.782736, "Y": -95.629483, "Name": "Westlake Pharmacy", "Address": "255 Westlake Park Blvd Ste 200", "City": "Houston", "State": "TX", "Zip": 770792649, "formated_phone": "281-496-1751", "Status": "open", "Icon": "small_green", "Type": "Pharmacy" }, "geometry": { "type": "Point", "coordinates": [ -95.629483, 29.782736 ] } },
{ "type": "Feature", "properties": { "X": 29.679009, "Y": -95.492301, "Name": "CVS Pharmacy #03156", "Address": "9125 Hillcroft St", "City": "Houston", "State": "TX", "Zip": 770962903, "formated_phone": "713-271-0998", "Status": "open", "Icon": "small_green", "Type": "Pharmacy" }, "geometry": { "type": "Point", "coordinates": [ -95.492301, 29.679009 ] } },
{ "type": "Feature", "properties": { "X": 29.673774, "Y": -95.545194, "Name": "TABB Pharmacy", "Address": "9730 Southwest Fwy Ste UC # 100", "City": "Houston", "State": "TX", "Zip": 770741352, "formated_phone": "713-772-8222", "Status": "not participating", "Icon": "measle_white", "Type": "Pharmacy" }, "geometry": { "type": "Point", "coordinates": [ -95.545194, 29.673774 ] } },
{ "type": "Feature", "properties": { "X": 29.707612, "Y": -95.49149, "Name": "TPS\/Liberty Rx", "Address": "6206 Dashwood", "City": "Houston", "State": "TX", "Zip": 770817137, "formated_phone": "713-778-0160", "Status": "open", "Icon": "small_green", "Type": "Pharmacy" }, "geometry": { "type": "Point", "coordinates": [ -95.49149, 29.707612 ] } },
{ "type": "Feature", "properties": { "X": 29.74444, "Y": -95.386592, "Name": "Southend Pharmacy", "Address": "415 Westheimer rd Suite 102-103", "City": "Houston", "State": "TX", "Zip": 77006, "formated_phone": "281-498-1450", "Status": "open", "Icon": "small_green", "Type": "Pharmacy" }, "geometry": { "type": "Point", "coordinates": [ -95.386592, 29.74444 ] } },
{ "type": "Feature", "properties": { "X": 29.738087, "Y": -95.402699, "Name": "HEB Pharmacy", "Address": "1701 West Alabama St.", "City": "Houston", "State": "TX", "Zip": 77098, "formated_phone": "713-807-7293", "Status": "not participating", "Icon": "measle_white", "Type": "Pharmacy" }, "geometry": { "type": "Point", "coordinates": [ -95.402699, 29.738087 ] } },
{ "type": "Feature", "properties": { "X": 29.735199, "Y": -95.286756, "Name": "Canal HealthCare Solns. LLC.", "Address": "7648 Canal St", "City": "Houston", "State": "TX", "Zip": 770121144, "formated_phone": "713-924-6067", "Status": "not participating", "Icon": "measle_white", "Type": "Pharmacy" }, "geometry": { "type": "Point", "coordinates": [ -95.286756, 29.735199 ] } },
{ "type": "Feature", "properties": { "X": 29.674911, "Y": -95.554109, "Name": "CHOICE PHARMACY", "Address": "9935 Bissonnet St B", "City": "Houston", "State": "TX", "Zip": 770367711, "formated_phone": "713-778-0463", "Status": "open", "Icon": "small_green", "Type": "Pharmacy" }, "geometry": { "type": "Point", "coordinates": [ -95.554109, 29.674911 ] } },
{ "type": "Feature", "properties": { "X": 29.729424, "Y": -95.522817, "Name": "Bluebonnet Apothecary Services", "Address": "9000 Richmond Ave Ste 200", "City": "Houston", "State": "TX", "Zip": 770634925, "formated_phone": "713-691-6200", "Status": "not participating", "Icon": "measle_white", "Type": "Pharmacy" }, "geometry": { "type": "Point", "coordinates": [ -95.522817, 29.729424 ] } },
{ "type": "Feature", "properties": { "X": 29.679209, "Y": -95.420823, "Name": "Advance Pharmacy", "Address": "2646 S Loop W Ste 330", "City": "Houston", "State": "TX", "Zip": 770542773, "formated_phone": "713-661-5711", "Status": "unknown", "Icon": "small_yellow", "Type": "Pharmacy" }, "geometry": { "type": "Point", "coordinates": [ -95.420823, 29.679209 ] } },
{ "type": "Feature", "properties": { "X": 29.715548, "Y": -95.495221, "Name": "PRUDENT PHARMACY", "Address": "6335 Gulfton St SUITE 105", "City": "Houston", "State": "TX", "Zip": 77081, "formated_phone": "281-867-0040", "Status": "not participating", "Icon": "measle_white", "Type": "Pharmacy" }, "geometry": { "type": "Point", "coordinates": [ -95.495221, 29.715548 ] } },
{ "type": "Feature", "properties": { "X": 29.729496, "Y": -95.411979, "Name": "Community, A Walgreens Pharmacy #15320", "Address": "4101 GREENBRIAR STE 235", "City": "HOUSTON", "State": "TX", "Zip": 770985244, "formated_phone": "713-521-1700", "Status": "open", "Icon": "small_green", "Type": "Pharmacy" }, "geometry": { "type": "Point", "coordinates": [ -95.411979, 29.729496 ] } },
{ "type": "Feature", "properties": { "X": 29.687962, "Y": -95.52988, "Name": "Kase RX Pharmacy", "Address": "8353 Southwest Fwy", "City": "Houston", "State": "TX", "Zip": 770741602, "formated_phone": "713-777-9200", "Status": "not participating", "Icon": "measle_white", "Type": "Pharmacy" }, "geometry": { "type": "Point", "coordinates": [ -95.52988, 29.687962 ] } },
{ "type": "Feature", "properties": { "X": 29.650347, "Y": -95.617561, "Name": "DeliverIt Pharmacy Inc", "Address": "13303 W Airport Blvd", "City": "Sugar Land", "State": "TX", "Zip": 774785800, "formated_phone": "281-277-1071", "Status": "open", "Icon": "small_green", "Type": "Pharmacy" }, "geometry": { "type": "Point", "coordinates": [ -95.617561, 29.650347 ] } },
{ "type": "Feature", "properties": { "X": 29.726611, "Y": -95.477311, "Name": "Metrorx", "Address": "5610 southwest fwy STE 103B", "City": "houston", "State": "TX", "Zip": 77057, "formated_phone": "281-972-8828", "Status": "open", "Icon": "small_green", "Type": "Pharmacy" }, "geometry": { "type": "Point", "coordinates": [ -95.477311, 29.726611 ] } },
{ "type": "Feature", "properties": { "X": 29.615497, "Y": -95.564754, "Name": "Pharmacy 4 Less", "Address": "432 Murphy Rd", "City": "Stafford", "State": "TX", "Zip": 774775448, "formated_phone": "281-969-5077", "Status": "not participating", "Icon": "measle_white", "Type": "Pharmacy" }, "geometry": { "type": "Point", "coordinates": [ -95.564754, 29.615497 ] } },
{ "type": "Feature", "properties": { "X": 29.760686, "Y": -95.625592, "Name": "S & K Med Pharmacy", "Address": "1396 Eldridge Pkwy Ste D", "City": "Houston", "State": "TX", "Zip": 770772545, "formated_phone": "281-752-7244", "Status": "open", "Icon": "small_green", "Type": "Pharmacy" }, "geometry": { "type": "Point", "coordinates": [ -95.625592, 29.760686 ] } },
{ "type": "Feature", "properties": { "X": 29.729164, "Y": -95.593446, "Name": "Family Pharmacy Care", "Address": "12121 Richmond Ave Ste 126", "City": "Houston", "State": "TX", "Zip": 770822453, "formated_phone": "281-315-3770", "Status": "open", "Icon": "small_green", "Type": "Pharmacy" }, "geometry": { "type": "Point", "coordinates": [ -95.593446, 29.729164 ] } },
{ "type": "Feature", "properties": { "X": 29.684403, "Y": -95.421705, "Name": "PRUCARE PHARMACY", "Address": "9219 SOUTH MAIN ST.", "City": "Houston", "State": "TX", "Zip": 77025, "formated_phone": "713-661-7300", "Status": "not participating", "Icon": "measle_white", "Type": "Pharmacy" }, "geometry": { "type": "Point", "coordinates": [ -95.421705, 29.684403 ] } },
{ "type": "Feature", "properties": { "X": 29.74601, "Y": -95.366362, "Name": "TruCare Pharmacy", "Address": "2000 Crawford St Ste 105", "City": "Houston", "State": "TX", "Zip": 770029000, "formated_phone": "346-980-5828", "Status": "open", "Icon": "small_green", "Type": "Pharmacy" }, "geometry": { "type": "Point", "coordinates": [ -95.366362, 29.74601 ] } },
{ "type": "Feature", "properties": { "X": 29.658921, "Y": -95.478435, "Name": "Rushmed Pharmacy P.L.L.C", "Address": "5326 W Bellfort St # STE.101", "City": "Houston", "State": "TX", "Zip": 770353041, "formated_phone": "832-582-8542", "Status": "open", "Icon": "small_green", "Type": "Pharmacy" }, "geometry": { "type": "Point", "coordinates": [ -95.478435, 29.658921 ] } },
{ "type": "Feature", "properties": { "X": 29.688143, "Y": -95.460689, "Name": "KELSEY PHARMACY - MEYERLAND", "Address": "560 Meyerland Plaza Mall", "City": "Houston", "State": "TX", "Zip": 770961615, "formated_phone": "713-442-3200", "Status": "not participating", "Icon": "measle_white", "Type": "Pharmacy" }, "geometry": { "type": "Point", "coordinates": [ -95.460689, 29.688143 ] } },
{ "type": "Feature", "properties": { "X": 29.678563, "Y": -95.601882, "Name": "E-Med Pharmacy LLC", "Address": "12638 Bissonnet St Ste G", "City": "Houston", "State": "TX", "Zip": 770991479, "formated_phone": "281-741-5289", "Status": "not participating", "Icon": "measle_white", "Type": "Pharmacy" }, "geometry": { "type": "Point", "coordinates": [ -95.601882, 29.678563 ] } },
{ "type": "Feature", "properties": { "X": 29.700418, "Y": -95.480868, "Name": "Medley Compounding Pharmacy", "Address": "5711 Bissonnet St Ste F", "City": "Bellaire", "State": "TX", "Zip": 774014724, "formated_phone": "713-838-1500", "Status": "not participating", "Icon": "measle_white", "Type": "Pharmacy" }, "geometry": { "type": "Point", "coordinates": [ -95.480868, 29.700418 ] } },
{ "type": "Feature", "properties": { "X": 29.716284, "Y": -95.547808, "Name": "MADONNA PHARMACY INC", "Address": "10333 Harwin Dr Ste 450", "City": "Houston", "State": "TX", "Zip": 770361561, "formated_phone": "832-831-8114", "Status": "not participating", "Icon": "measle_white", "Type": "Pharmacy" }, "geometry": { "type": "Point", "coordinates": [ -95.547808, 29.716284 ] } },
{ "type": "Feature", "properties": { "X": 29.732094, "Y": -95.488922, "Name": "Amber Jar Pharmacy", "Address": "6160 Richmond Ave", "City": "Houston", "State": "TX", "Zip": 770576210, "formated_phone": "713-893-5993", "Status": "open", "Icon": "small_green", "Type": "Pharmacy" }, "geometry": { "type": "Point", "coordinates": [ -95.488922, 29.732094 ] } },
{ "type": "Feature", "properties": { "X": 29.658336, "Y": -95.337551, "Name": "Healthco Pharmacy #2", "Address": "8604 Martin Luther King Jr. Blvd", "City": "Houston", "State": "TX", "Zip": 77033, "formated_phone": "713-640-5575", "Status": "open", "Icon": "small_green", "Type": "Pharmacy" }, "geometry": { "type": "Point", "coordinates": [ -95.337551, 29.658336 ] } },
{ "type": "Feature", "properties": { "X": 29.743016, "Y": -95.303316, "Name": "Pecan Park Pharmacy", "Address": "906 Wayside Dr", "City": "Houston", "State": "TX", "Zip": 770112518, "formated_phone": "713-861-4300", "Status": "not participating", "Icon": "measle_white", "Type": "Pharmacy" }, "geometry": { "type": "Point", "coordinates": [ -95.303316, 29.743016 ] } },
{ "type": "Feature", "properties": { "X": 29.614515, "Y": -95.552633, "Name": "Stafford Pharmacy & DME", "Address": "2448 S Main St", "City": "Stafford", "State": "TX", "Zip": 774775522, "formated_phone": "281-969-5901", "Status": "not participating", "Icon": "measle_white", "Type": "Pharmacy" }, "geometry": { "type": "Point", "coordinates": [ -95.552633, 29.614515 ] } },
{ "type": "Feature", "properties": { "X": 29.749792, "Y": -95.496711, "Name": "Briargrove Pharmacy", "Address": "6435 San Felipe St", "City": "HOUSTON", "State": "TX", "Zip": 77057, "formated_phone": "713-783-5704", "Status": "open", "Icon": "small_green", "Type": "Pharmacy" }, "geometry": { "type": "Point", "coordinates": [ -95.496711, 29.749792 ] } },
{ "type": "Feature", "properties": { "X": 29.716281, "Y": -95.314167, "Name": "Walmart Pharmacy 10-5612", "Address": "2391 S Wayside Dr", "City": "Houston", "State": "TX", "Zip": 770233910, "formated_phone": "713-300-3662", "Status": "open", "Icon": "small_green", "Type": "Pharmacy" }, "geometry": { "type": "Point", "coordinates": [ -95.314167, 29.716281 ] } },
{ "type": "Feature", "properties": { "X": 29.677553, "Y": -95.550448, "Name": "Blue Mint Pharmacy", "Address": "9888 Bissonnet St Ste 210", "City": "Houston", "State": "TX", "Zip": 770368441, "formated_phone": "713-773-2535", "Status": "not participating", "Icon": "measle_white", "Type": "Pharmacy" }, "geometry": { "type": "Point", "coordinates": [ -95.550448, 29.677553 ] } },
{ "type": "Feature", "properties": { "X": 29.632709, "Y": -95.597942, "Name": "Healthchoice Pharmacy", "Address": "12930 Dairy Ashford Rd Ste 303", "City": "Sugar Land", "State": "TX", "Zip": 774783102, "formated_phone": "281-741-8358", "Status": "open", "Icon": "small_green", "Type": "Pharmacy" }, "geometry": { "type": "Point", "coordinates": [ -95.597942, 29.632709 ] } },
{ "type": "Feature", "properties": { "X": 29.648003, "Y": -95.461848, "Name": "Empire Rx", "Address": "12361 Main St", "City": "Houston", "State": "TX", "Zip": 770356200, "formated_phone": "832-500-5847", "Status": "not participating", "Icon": "measle_white", "Type": "Pharmacy" }, "geometry": { "type": "Point", "coordinates": [ -95.461848, 29.648003 ] } },
{ "type": "Feature", "properties": { "X": 29.646787, "Y": -95.651394, "Name": "NAHS PHARMACY II", "Address": "11677 S Highway 6", "City": "Sugar Land", "State": "TX", "Zip": 774981302, "formated_phone": "832-939-8950", "Status": "open", "Icon": "small_green", "Type": "Pharmacy" }, "geometry": { "type": "Point", "coordinates": [ -95.651394, 29.646787 ] } },
{ "type": "Feature", "properties": { "X": 29.729232, "Y": -95.310327, "Name": "Health Rx Scripts Pharmacy", "Address": "900 S Wayside Dr Suite 400 A", "City": "Houston", "State": "TX", "Zip": 770233427, "formated_phone": "832-740-4353", "Status": "unknown", "Icon": "small_yellow", "Type": "Pharmacy" }, "geometry": { "type": "Point", "coordinates": [ -95.310327, 29.729232 ] } },
{ "type": "Feature", "properties": { "X": 29.70645, "Y": -95.416229, "Name": "Texas Unicare Pharmacy", "Address": "2424 W Holcombe Blvd Ste 101", "City": "Houston", "State": "TX", "Zip": 770301933, "formated_phone": "832-834-3222", "Status": "not participating", "Icon": "measle_white", "Type": "Pharmacy" }, "geometry": { "type": "Point", "coordinates": [ -95.416229, 29.70645 ] } },
{ "type": "Feature", "properties": { "X": 29.740168, "Y": -95.37536, "Name": "Elgin Pharmacy", "Address": "1202 Elgin St # B", "City": "Houston", "State": "TX", "Zip": 770042829, "formated_phone": "713-533-9033", "Status": "open", "Icon": "small_green", "Type": "Pharmacy" }, "geometry": { "type": "Point", "coordinates": [ -95.37536, 29.740168 ] } },
{ "type": "Feature", "properties": { "X": 29.720911, "Y": -95.375468, "Name": "A-List Pharmacy", "Address": "5205 Emancipation Ave Ste B", "City": "Houston", "State": "TX", "Zip": 77004, "formated_phone": "713-529-2728", "Status": "not participating", "Icon": "measle_white", "Type": "Pharmacy" }, "geometry": { "type": "Point", "coordinates": [ -95.375468, 29.720911 ] } },
{ "type": "Feature", "properties": { "X": 29.685778, "Y": -95.527749, "Name": "Mace RX Pharmacy", "Address": "8775 S Gessner Rd", "City": "Houston", "State": "TX", "Zip": 770742915, "formated_phone": "832-917-5550", "Status": "not participating", "Icon": "measle_white", "Type": "Pharmacy" }, "geometry": { "type": "Point", "coordinates": [ -95.527749, 29.685778 ] } },
{ "type": "Feature", "properties": { "X": 29.689655, "Y": -95.52845, "Name": "KPLAN PHARMACY LLC", "Address": "8191 Southwest Fwy Ste 203", "City": "Houston", "State": "TX", "Zip": 770741702, "formated_phone": "713-534-1110", "Status": "not participating", "Icon": "measle_white", "Type": "Pharmacy" }, "geometry": { "type": "Point", "coordinates": [ -95.52845, 29.689655 ] } },
{ "type": "Feature", "properties": { "X": 29.676018, "Y": -95.545554, "Name": "Texas Children's Hospital Pharmacy-Southwest", "Address": "9700 Bissonnet St Ste 1000W", "City": "Houston", "State": "TX", "Zip": 770368001, "formated_phone": "832-733-1400", "Status": "open", "Icon": "small_green", "Type": "Pharmacy" }, "geometry": { "type": "Point", "coordinates": [ -95.545554, 29.676018 ] } },
{ "type": "Feature", "properties": { "X": 29.711356, "Y": -95.499726, "Name": "PHARMACARE PLUS", "Address": "6720 Sands Point Dr Ste 105", "City": "Houston", "State": "TX", "Zip": 770743744, "formated_phone": "832-269-5348", "Status": "not participating", "Icon": "measle_white", "Type": "Pharmacy" }, "geometry": { "type": "Point", "coordinates": [ -95.499726, 29.711356 ] } },
{ "type": "Feature", "properties": { "X": 29.703995, "Y": -95.610642, "Name": "Bellaire Medical Pharmacy", "Address": "12924 Bellaire Blvd Suite 100A", "City": "Houston", "State": "TX", "Zip": 77072, "formated_phone": "713-457-3600", "Status": "open", "Icon": "small_green", "Type": "Pharmacy" }, "geometry": { "type": "Point", "coordinates": [ -95.610642, 29.703995 ] } },
{ "type": "Feature", "properties": { "X": 29.672209, "Y": -95.528791, "Name": "Kharisma Pharmacy", "Address": "8608 S. Braeswood Blvd", "City": "Houston", "State": "TX", "Zip": 77031, "formated_phone": "832-409-5586", "Status": "not participating", "Icon": "measle_white", "Type": "Pharmacy" }, "geometry": { "type": "Point", "coordinates": [ -95.528791, 29.672209 ] } },
{ "type": "Feature", "properties": { "X": 29.740967, "Y": -95.419428, "Name": "West Ave Pharmacy", "Address": "2800 Kirby Dr Ste A200", "City": "Houston", "State": "TX", "Zip": 770981736, "formated_phone": "832-831-9480", "Status": "open", "Icon": "small_green", "Type": "Pharmacy" }, "geometry": { "type": "Point", "coordinates": [ -95.419428, 29.740967 ] } },
{ "type": "Feature", "properties": { "X": 29.718536, "Y": -95.488034, "Name": "Santa Maria Pharmacy", "Address": "5727 Rampart St. Ste, A8", "City": "Houston", "State": "TX", "Zip": 77081, "formated_phone": "713-592-5300", "Status": "not participating", "Icon": "measle_white", "Type": "Pharmacy" }, "geometry": { "type": "Point", "coordinates": [ -95.488034, 29.718536 ] } },
{ "type": "Feature", "properties": { "X": 29.741996, "Y": -95.375209, "Name": "ASPCares", "Address": "3009 Fannin Street", "City": "Houston", "State": "TX", "Zip": 77004, "formated_phone": "832-500-3565", "Status": "not participating", "Icon": "measle_white", "Type": "Pharmacy" }, "geometry": { "type": "Point", "coordinates": [ -95.375209, 29.741996 ] } },
{ "type": "Feature", "properties": { "X": 29.738402, "Y": -95.410889, "Name": "CVS Pharmacy #10554", "Address": "2111 W Alabama St", "City": "Houston", "State": "TX", "Zip": 770982401, "formated_phone": "713-874-1085", "Status": "open", "Icon": "small_green", "Type": "Pharmacy" }, "geometry": { "type": "Point", "coordinates": [ -95.410889, 29.738402 ] } },
{ "type": "Feature", "properties": { "X": 29.72298, "Y": -95.465213, "Name": "Walmart Pharmacy 10-3584", "Address": "5405 S Rice Ave", "City": "Houston", "State": "TX", "Zip": 770812113, "formated_phone": "713-860-9245", "Status": "open", "Icon": "small_green", "Type": "Pharmacy" }, "geometry": { "type": "Point", "coordinates": [ -95.465213, 29.72298 ] } },
{ "type": "Feature", "properties": { "X": 29.692216, "Y": -95.400797, "Name": "Texas Rxsolutions and Compounding Pharmacy", "Address": "7505 Fannin st  #140", "City": "Houston", "State": "TX", "Zip": 77054, "formated_phone": "713-790-1228", "Status": "open", "Icon": "small_green", "Type": "Pharmacy" }, "geometry": { "type": "Point", "coordinates": [ -95.400797, 29.692216 ] } },
{ "type": "Feature", "properties": { "X": 29.643958, "Y": -95.508838, "Name": "Health and Wellness Pharmacy", "Address": "12304 Fondren Ste A", "City": "Houston", "State": "TX", "Zip": 77035, "formated_phone": "832-516-8468", "Status": "not participating", "Icon": "measle_white", "Type": "Pharmacy" }, "geometry": { "type": "Point", "coordinates": [ -95.508838, 29.643958 ] } },
{ "type": "Feature", "properties": { "X": 29.662005, "Y": -95.686974, "Name": "CVS Pharmacy #10671", "Address": "10420 FM 1464", "City": "Richmond", "State": "TX", "Zip": 77407, "formated_phone": "281-240-0123", "Status": "open", "Icon": "small_green", "Type": "Pharmacy" }, "geometry": { "type": "Point", "coordinates": [ -95.686974, 29.662005 ] } },
{ "type": "Feature", "properties": { "X": 29.687733, "Y": -95.560227, "Name": "KIMMY PHARMACY", "Address": "8388 W Sam Houston Pkwy S Ste 186", "City": "Houston", "State": "TX", "Zip": 770725081, "formated_phone": "281-564-5400", "Status": "open", "Icon": "small_green", "Type": "Pharmacy" }, "geometry": { "type": "Point", "coordinates": [ -95.560227, 29.687733 ] } },
{ "type": "Feature", "properties": { "X": 29.709933, "Y": -95.459181, "Name": "Well Lake Specialty Pharmacy LLC", "Address": "6565 West Loop S Ste 110B", "City": "Bellaire", "State": "TX", "Zip": 774013505, "formated_phone": "281-973-4731", "Status": "open", "Icon": "small_green", "Type": "Pharmacy" }, "geometry": { "type": "Point", "coordinates": [ -95.459181, 29.709933 ] } },
{ "type": "Feature", "properties": { "X": 29.721732, "Y": -95.382442, "Name": "Proscript America", "Address": "1801 Binz St Ste 310", "City": "Houston", "State": "TX", "Zip": 770048107, "formated_phone": "281-816-6501", "Status": "open", "Icon": "small_green", "Type": "Pharmacy" }, "geometry": { "type": "Point", "coordinates": [ -95.382442, 29.721732 ] } },
{ "type": "Feature", "properties": { "X": 29.751265, "Y": -95.462683, "Name": "cedra pharmacy", "Address": "1607 S. Post Oak Lane", "City": "Houston", "State": "TX", "Zip": 77056, "formated_phone": "713-621-0621", "Status": "open", "Icon": "small_green", "Type": "Pharmacy" }, "geometry": { "type": "Point", "coordinates": [ -95.462683, 29.751265 ] } },
{ "type": "Feature", "properties": { "X": 29.729328, "Y": -95.533995, "Name": "RICHMOND PHARMACY", "Address": "9536 Richmond Ave Ste I", "City": "Houston", "State": "TX", "Zip": 770633845, "formated_phone": "832-991-8997", "Status": "not participating", "Icon": "measle_white", "Type": "Pharmacy" }, "geometry": { "type": "Point", "coordinates": [ -95.533995, 29.729328 ] } },
{ "type": "Feature", "properties": { "X": 29.634572, "Y": -95.619433, "Name": "Evolution Rx Pharmacy", "Address": "931 Eldridge Rd", "City": "Sugar Land", "State": "TX", "Zip": 774782809, "formated_phone": "832-532-7961", "Status": "open", "Icon": "small_green", "Type": "Pharmacy" }, "geometry": { "type": "Point", "coordinates": [ -95.619433, 29.634572 ] } },
{ "type": "Feature", "properties": { "X": 29.705294, "Y": -95.460045, "Name": "Avita Pharmacy", "Address": "6800 W. Loop S. Suite 225", "City": "Bellaire", "State": "TX", "Zip": 77401, "formated_phone": "713-592-0211", "Status": "open", "Icon": "small_green", "Type": "Pharmacy" }, "geometry": { "type": "Point", "coordinates": [ -95.460045, 29.705294 ] } },
{ "type": "Feature", "properties": { "X": 29.679441, "Y": -95.421692, "Name": "Primesource Rx LLC", "Address": "2656 S Loop W Ste 574", "City": "Houston", "State": "TX", "Zip": 770542664, "formated_phone": "832-464-7616", "Status": "open", "Icon": "small_green", "Type": "Pharmacy" }, "geometry": { "type": "Point", "coordinates": [ -95.421692, 29.679441 ] } },
{ "type": "Feature", "properties": { "X": 29.603549, "Y": -95.564973, "Name": "Fort Bend Rx Pharmacy", "Address": "1100 Fm 1092 Rd Ste D", "City": "Missouri City", "State": "TX", "Zip": 774591588, "formated_phone": "281-969-7611", "Status": "not participating", "Icon": "measle_white", "Type": "Pharmacy" }, "geometry": { "type": "Point", "coordinates": [ -95.564973, 29.603549 ] } },
{ "type": "Feature", "properties": { "X": 29.747575, "Y": -95.605238, "Name": "CAREPOINT PHARMACY", "Address": "1801 S Dairy Ashford Rd Ste 127", "City": "Houston", "State": "TX", "Zip": 770774776, "formated_phone": "832-742-0410", "Status": "open", "Icon": "small_green", "Type": "Pharmacy" }, "geometry": { "type": "Point", "coordinates": [ -95.605238, 29.747575 ] } },
{ "type": "Feature", "properties": { "X": 29.753001, "Y": -95.606413, "Name": "Medicx Pharmacy", "Address": "1500 SOUTH DAIRY ASHFORD ST. STE 180B", "City": "HOUSTON", "State": "TX", "Zip": 77077, "formated_phone": "832-632-1661", "Status": "unknown", "Icon": "small_yellow", "Type": "Pharmacy" }, "geometry": { "type": "Point", "coordinates": [ -95.606413, 29.753001 ] } },
{ "type": "Feature", "properties": { "X": 29.684757, "Y": -95.293596, "Name": "BEST CARE RX", "Address": "7442 PARK PLACE BLVD", "City": "HOUSTON", "State": "TX", "Zip": 77087, "formated_phone": "281-888-2179", "Status": "not participating", "Icon": "measle_white", "Type": "Pharmacy" }, "geometry": { "type": "Point", "coordinates": [ -95.293596, 29.684757 ] } },
{ "type": "Feature", "properties": { "X": 29.658205, "Y": -95.337556, "Name": "ASPCares", "Address": "8610 Martin Luther King Blvd", "City": "Houston", "State": "TX", "Zip": 770332308, "formated_phone": "832-500-3575", "Status": "not participating", "Icon": "measle_white", "Type": "Pharmacy" }, "geometry": { "type": "Point", "coordinates": [ -95.337556, 29.658205 ] } },
{ "type": "Feature", "properties": { "X": 29.733846, "Y": -95.297623, "Name": "Barato Pharmacy LLC", "Address": "7218 Harrisburg Bvld Unit B", "City": "Houston", "State": "TX", "Zip": 77011, "formated_phone": "832-830-8844", "Status": "not participating", "Icon": "measle_white", "Type": "Pharmacy" }, "geometry": { "type": "Point", "coordinates": [ -95.297623, 29.733846 ] } },
{ "type": "Feature", "properties": { "X": 29.656096, "Y": -95.53186, "Name": "ASPCares", "Address": "8785 W Bellfort St Ste A", "City": "Houston", "State": "TX", "Zip": 770312403, "formated_phone": "214-919-2520", "Status": "open", "Icon": "small_green", "Type": "Pharmacy" }, "geometry": { "type": "Point", "coordinates": [ -95.53186, 29.656096 ] } },
{ "type": "Feature", "properties": { "X": 29.656151, "Y": -95.510211, "Name": "REDICARE", "Address": "7580 W Bellfort St Suite B", "City": "Houston", "State": "TX", "Zip": 770712102, "formated_phone": "713-772-0100", "Status": "not participating", "Icon": "measle_white", "Type": "Pharmacy" }, "geometry": { "type": "Point", "coordinates": [ -95.510211, 29.656151 ] } },
{ "type": "Feature", "properties": { "X": 29.646889, "Y": -95.580825, "Name": "Primetouch Pharmacy", "Address": "11611 W Airport Blvd Ste B2", "City": "Meadows Place", "State": "TX", "Zip": 774773042, "formated_phone": "281-302-5494", "Status": "not participating", "Icon": "measle_white", "Type": "Pharmacy" }, "geometry": { "type": "Point", "coordinates": [ -95.580825, 29.646889 ] } },
{ "type": "Feature", "properties": { "X": 29.673801, "Y": -95.414132, "Name": "Pure Pharmaceuticals", "Address": "8973 Interchange Dr", "City": "Houston", "State": "TX", "Zip": 770542513, "formated_phone": "832-740-4026", "Status": "not participating", "Icon": "measle_white", "Type": "Pharmacy" }, "geometry": { "type": "Point", "coordinates": [ -95.414132, 29.673801 ] } },
{ "type": "Feature", "properties": { "X": 29.622765, "Y": -95.596964, "Name": "Rosh Pharmacy", "Address": "101 Southwestern Blvd # 100", "City": "Sugar Land", "State": "TX", "Zip": 774783668, "formated_phone": "832-939-3550", "Status": "open", "Icon": "small_green", "Type": "Pharmacy" }, "geometry": { "type": "Point", "coordinates": [ -95.596964, 29.622765 ] } },
{ "type": "Feature", "properties": { "X": 29.715134, "Y": -95.50941, "Name": "VITAL STAR PHARMACY, INC.", "Address": "7207 REGENCY SQUARE BLVD. SUITE 203", "City": "HOUSTON", "State": "TX", "Zip": 77036, "formated_phone": "713-785-1960", "Status": "not participating", "Icon": "measle_white", "Type": "Pharmacy" }, "geometry": { "type": "Point", "coordinates": [ -95.50941, 29.715134 ] } },
{ "type": "Feature", "properties": { "X": 29.673929, "Y": -95.41275, "Name": "Amber Pharmacy", "Address": "8924 Kirby Drive", "City": "Houston", "State": "TX", "Zip": 770542810, "formated_phone": "888-370-1724", "Status": "open", "Icon": "small_green", "Type": "Pharmacy" }, "geometry": { "type": "Point", "coordinates": [ -95.41275, 29.673929 ] } },
{ "type": "Feature", "properties": { "X": 29.648921, "Y": -95.459427, "Name": "The Menninger Clinic", "Address": "12301 Main St.", "City": "Houston", "State": "TX", "Zip": 77035, "formated_phone": "713-275-5151", "Status": "not participating", "Icon": "measle_white", "Type": "Pharmacy" }, "geometry": { "type": "Point", "coordinates": [ -95.459427, 29.648921 ] } },
{ "type": "Feature", "properties": { "X": 29.736116, "Y": -95.636534, "Name": "Betex pharmacy", "Address": "13948 A westheimer rd", "City": "houston", "State": "TX", "Zip": 77077, "formated_phone": "281-741-2914", "Status": "unknown", "Icon": "small_yellow", "Type": "Pharmacy" }, "geometry": { "type": "Point", "coordinates": [ -95.636534, 29.736116 ] } },
{ "type": "Feature", "properties": { "X": 29.72673, "Y": -95.370936, "Name": "Healthy Strides RX", "Address": "4401 Emancipation Ave", "City": "Houston", "State": "TX", "Zip": 770045221, "formated_phone": "281-888-2235", "Status": "open", "Icon": "small_green", "Type": "Pharmacy" }, "geometry": { "type": "Point", "coordinates": [ -95.370936, 29.72673 ] } },
{ "type": "Feature", "properties": { "X": 29.652008, "Y": -95.617161, "Name": "Walmart Pharmacy 10-4466", "Address": "13322 West Airport Blvd", "City": "Sugar Land", "State": "TX", "Zip": 77478, "formated_phone": "832-935-6344", "Status": "open", "Icon": "small_green", "Type": "Pharmacy" }, "geometry": { "type": "Point", "coordinates": [ -95.617161, 29.652008 ] } },
{ "type": "Feature", "properties": { "X": 29.658205, "Y": -95.337556, "Name": "Central Care IHS Pharmacy", "Address": "8610 Martin Luther King Blvd", "City": "Houston", "State": "TX", "Zip": 770332308, "formated_phone": "713-734-0199", "Status": "not participating", "Icon": "measle_white", "Type": "Pharmacy" }, "geometry": { "type": "Point", "coordinates": [ -95.337556, 29.658205 ] } },
{ "type": "Feature", "properties": { "X": 29.744983, "Y": -95.394107, "Name": "Legacy Community Health Services Pharmacy- Montrose", "Address": "1415 California St Suite 110", "City": "Houston", "State": "TX", "Zip": 770062602, "formated_phone": "713-665-8800", "Status": "open", "Icon": "small_green", "Type": "Pharmacy" }, "geometry": { "type": "Point", "coordinates": [ -95.394107, 29.744983 ] } },
{ "type": "Feature", "properties": { "X": 29.692216, "Y": -95.400797, "Name": "DPS Pharmacy", "Address": "7505 Fannin St Ste 208", "City": "Houston", "State": "TX", "Zip": 770541953, "formated_phone": "832-491-1019", "Status": "not participating", "Icon": "measle_white", "Type": "Pharmacy" }, "geometry": { "type": "Point", "coordinates": [ -95.400797, 29.692216 ] } },
{ "type": "Feature", "properties": { "X": 29.724315, "Y": -95.494577, "Name": "PharmMed Pharmacy", "Address": "6250 Westpark Dr Ste 309", "City": "Houston", "State": "TX", "Zip": 770577340, "formated_phone": "713-534-1930", "Status": "not participating", "Icon": "measle_white", "Type": "Pharmacy" }, "geometry": { "type": "Point", "coordinates": [ -95.494577, 29.724315 ] } },
{ "type": "Feature", "properties": { "X": 29.693376, "Y": -95.604477, "Name": "GREENLAND PHARMACY", "Address": "7991 S Dairy Ashford Rd Unit B", "City": "Houston", "State": "TX", "Zip": 770724631, "formated_phone": "832-781-8998", "Status": "open", "Icon": "small_green", "Type": "Pharmacy" }, "geometry": { "type": "Point", "coordinates": [ -95.604477, 29.693376 ] } },
{ "type": "Feature", "properties": { "X": 29.647243, "Y": -95.459592, "Name": "GREENLAND PHARMACY #8", "Address": "12333 South Main Street", "City": "Houston", "State": "TX", "Zip": 77035, "formated_phone": "832-850-7373", "Status": "unknown", "Icon": "small_yellow", "Type": "Pharmacy" }, "geometry": { "type": "Point", "coordinates": [ -95.459592, 29.647243 ] } },
{ "type": "Feature", "properties": { "X": 29.614018, "Y": -95.532947, "Name": "Discount Meds Pharmacy", "Address": "802 Fm 2234 Rd Ste 2A", "City": "Stafford", "State": "TX", "Zip": 774776400, "formated_phone": "346-304-2909", "Status": "not participating", "Icon": "measle_white", "Type": "Pharmacy" }, "geometry": { "type": "Point", "coordinates": [ -95.532947, 29.614018 ] } },
{ "type": "Feature", "properties": { "X": 29.698544, "Y": -95.410137, "Name": "Scripts Rx Pharmacy LLC", "Address": "7515 Main St", "City": "Houston", "State": "TX", "Zip": 770304519, "formated_phone": "888-473-4002", "Status": "not participating", "Icon": "measle_white", "Type": "Pharmacy" }, "geometry": { "type": "Point", "coordinates": [ -95.410137, 29.698544 ] } },
{ "type": "Feature", "properties": { "X": 29.731317, "Y": -95.493877, "Name": "Cityrx Pharmacy", "Address": "6301 Richmond Ave Ste 100", "City": "Houston", "State": "TX", "Zip": 770575905, "formated_phone": "832-884-4327", "Status": "not participating", "Icon": "measle_white", "Type": "Pharmacy" }, "geometry": { "type": "Point", "coordinates": [ -95.493877, 29.731317 ] } },
{ "type": "Feature", "properties": { "X": 29.763324, "Y": -95.363096, "Name": "CVS PHARMACY #11094", "Address": "300 Milam St", "City": "Houston", "State": "TX", "Zip": 770021860, "formated_phone": "713-223-0371", "Status": "open", "Icon": "small_green", "Type": "Pharmacy" }, "geometry": { "type": "Point", "coordinates": [ -95.363096, 29.763324 ] } },
{ "type": "Feature", "properties": { "X": 29.682972, "Y": -95.559536, "Name": "Leadway Pharmacy", "Address": "9370 W Sam Houston Pkwy S Ste E", "City": "Houston", "State": "TX", "Zip": 770995224, "formated_phone": "832-664-8713", "Status": "open", "Icon": "small_green", "Type": "Pharmacy" }, "geometry": { "type": "Point", "coordinates": [ -95.559536, 29.682972 ] } },
{ "type": "Feature", "properties": { "X": 29.723629, "Y": -95.495153, "Name": "Script Pro Pharmacy", "Address": "6260 Westpark Dr # 314", "City": "Houston", "State": "TX", "Zip": 770577312, "formated_phone": "281-501-3970", "Status": "not participating", "Icon": "measle_white", "Type": "Pharmacy" }, "geometry": { "type": "Point", "coordinates": [ -95.495153, 29.723629 ] } },
{ "type": "Feature", "properties": { "X": 29.724294, "Y": -95.497431, "Name": "PREMIER RX PHARMACY", "Address": "6300 Westpark Dr Ste 210", "City": "Houston", "State": "TX", "Zip": 770577207, "formated_phone": "713-592-6188", "Status": "not participating", "Icon": "measle_white", "Type": "Pharmacy" }, "geometry": { "type": "Point", "coordinates": [ -95.497431, 29.724294 ] } },
{ "type": "Feature", "properties": { "X": 29.675968, "Y": -95.428458, "Name": "NextCare Pharmacy", "Address": "10021 South Main St.,  Ste B-2A", "City": "Houston", "State": "TX", "Zip": 770255224, "formated_phone": "713-492-2088", "Status": "not participating", "Icon": "measle_white", "Type": "Pharmacy" }, "geometry": { "type": "Point", "coordinates": [ -95.428458, 29.675968 ] } },
{ "type": "Feature", "properties": { "X": 29.707623, "Y": -95.469502, "Name": "HEB Pharmacy #738", "Address": "5106 Bissonnet St", "City": "Bellaire", "State": "TX", "Zip": 774014007, "formated_phone": "713-662-2000", "Status": "not participating", "Icon": "measle_white", "Type": "Pharmacy" }, "geometry": { "type": "Point", "coordinates": [ -95.469502, 29.707623 ] } },
{ "type": "Feature", "properties": { "X": 29.656151, "Y": -95.571482, "Name": "TJ BROTHERS PHARMACY", "Address": "10910 W. BELLFORT AVE.", "City": "HOUSTON", "State": "TX", "Zip": 77099, "formated_phone": "346-888-6597", "Status": "not participating", "Icon": "measle_white", "Type": "Pharmacy" }, "geometry": { "type": "Point", "coordinates": [ -95.571482, 29.656151 ] } },
{ "type": "Feature", "properties": { "X": 29.733125, "Y": -95.418054, "Name": "WALGREENS #21161", "Address": "3701 Kirby Dr", "City": "Houston", "State": "TX", "Zip": 770983900, "formated_phone": "713-983-2045", "Status": "open", "Icon": "small_green", "Type": "Pharmacy" }, "geometry": { "type": "Point", "coordinates": [ -95.418054, 29.733125 ] } },
{ "type": "Feature", "properties": { "X": 29.71655, "Y": -95.504957, "Name": "Trifecta Pharmacy LLC", "Address": "6001 Savoy Dr Ste 205", "City": "Houston", "State": "TX", "Zip": 770363322, "formated_phone": "832-742-5022", "Status": "not participating", "Icon": "measle_white", "Type": "Pharmacy" }, "geometry": { "type": "Point", "coordinates": [ -95.504957, 29.71655 ] } },
{ "type": "Feature", "properties": { "X": 29.732838, "Y": -95.652735, "Name": "SNG PHARMACY", "Address": "15115 Westheimer Rd Ste R", "City": "Houston", "State": "TX", "Zip": 770821666, "formated_phone": "281-416-5734", "Status": "not participating", "Icon": "measle_white", "Type": "Pharmacy" }, "geometry": { "type": "Point", "coordinates": [ -95.652735, 29.732838 ] } },
{ "type": "Feature", "properties": { "X": 29.693596, "Y": -95.521276, "Name": "Metro I.D. Associates", "Address": "7777 Southwest Freeway, Suite 610", "City": "Houston", "State": "TX", "Zip": 77074, "formated_phone": "713-339-9949", "Status": "not participating", "Icon": "measle_white", "Type": "Pharmacy" }, "geometry": { "type": "Point", "coordinates": [ -95.521276, 29.693596 ] } },
{ "type": "Feature", "properties": { "X": 29.739189, "Y": -95.522031, "Name": "Piney Point Pharmacy", "Address": "2532 FONDREN ROAD", "City": "HOUSTON", "State": "TX", "Zip": 770632308, "formated_phone": "713-782-6212", "Status": "not participating", "Icon": "measle_white", "Type": "Pharmacy" }, "geometry": { "type": "Point", "coordinates": [ -95.522031, 29.739189 ] } },
{ "type": "Feature", "properties": { "X": 29.600434, "Y": -95.515549, "Name": "Missouri City Pharmacy", "Address": "1531 Hwy 90 Alt Suite - 200", "City": "Missouri City", "State": "TX", "Zip": 77489, "formated_phone": "281-393-4040", "Status": "not participating", "Icon": "measle_white", "Type": "Pharmacy" }, "geometry": { "type": "Point", "coordinates": [ -95.515549, 29.600434 ] } },
{ "type": "Feature", "properties": { "X": 29.717864, "Y": -95.604576, "Name": "ASHFORD PHARMACY INC", "Address": "3751 S Dairy Ashford Rd # 102", "City": "Houston", "State": "TX", "Zip": 770825673, "formated_phone": "832-243-6127", "Status": "not participating", "Icon": "measle_white", "Type": "Pharmacy" }, "geometry": { "type": "Point", "coordinates": [ -95.604576, 29.717864 ] } },
{ "type": "Feature", "properties": { "X": 29.708028, "Y": -95.475061, "Name": "joseph ghebremichael", "Address": "5420 DASHWOOD DRIVE SUITE 201", "City": "HOUSTON", "State": "TX", "Zip": 77081, "formated_phone": "346-406-5095", "Status": "not participating", "Icon": "measle_white", "Type": "Pharmacy" }, "geometry": { "type": "Point", "coordinates": [ -95.475061, 29.708028 ] } },
{ "type": "Feature", "properties": { "X": 29.655174, "Y": -95.524984, "Name": "Miracle Pharmacy Inc", "Address": "8449 W Bellfort St Ste 130", "City": "Houston", "State": "TX", "Zip": 770712246, "formated_phone": "713-485-6461", "Status": "not participating", "Icon": "measle_white", "Type": "Pharmacy" }, "geometry": { "type": "Point", "coordinates": [ -95.524984, 29.655174 ] } },
{ "type": "Feature", "properties": { "X": 29.688911, "Y": -95.597656, "Name": "La Rx 2", "Address": "12435 Beechnut St Ste 107", "City": "Houston", "State": "TX", "Zip": 770723948, "formated_phone": "346-219-0830", "Status": "unknown", "Icon": "small_yellow", "Type": "Pharmacy" }, "geometry": { "type": "Point", "coordinates": [ -95.597656, 29.688911 ] } },
{ "type": "Feature", "properties": { "X": 29.656197, "Y": -95.564387, "Name": "Healthy Life Professional Pharmacy", "Address": "11226 Southwest Fwy", "City": "Houston", "State": "TX", "Zip": 770313604, "formated_phone": "281-495-1980", "Status": "unknown", "Icon": "small_yellow", "Type": "Pharmacy" }, "geometry": { "type": "Point", "coordinates": [ -95.564387, 29.656197 ] } },
{ "type": "Feature", "properties": { "X": 29.613893, "Y": -95.552934, "Name": "One Choice Pharmacy", "Address": "2503 S Main St Ste 0", "City": "Stafford", "State": "TX", "Zip": 774775544, "formated_phone": "281-969-7899", "Status": "not participating", "Icon": "measle_white", "Type": "Pharmacy" }, "geometry": { "type": "Point", "coordinates": [ -95.552934, 29.613893 ] } },
{ "type": "Feature", "properties": { "X": 29.74865, "Y": -95.367048, "Name": "St Joseph Pharmacy", "Address": "1315 St Joseph Pkwy Ste 100", "City": "Houston", "State": "TX", "Zip": 770028229, "formated_phone": "713-589-5878", "Status": "open", "Icon": "small_green", "Type": "Pharmacy" }, "geometry": { "type": "Point", "coordinates": [ -95.367048, 29.74865 ] } },
{ "type": "Feature", "properties": { "X": 29.623362, "Y": -95.597458, "Name": "Ur Direct Rx", "Address": "13515 Southwest Fwy Ste 201", "City": "Sugar Land", "State": "TX", "Zip": 774783547, "formated_phone": "281-903-7236", "Status": "not participating", "Icon": "measle_white", "Type": "Pharmacy" }, "geometry": { "type": "Point", "coordinates": [ -95.597458, 29.623362 ] } },
{ "type": "Feature", "properties": { "X": 29.684556, "Y": -95.716164, "Name": "Always First Pharmacy LLC", "Address": "8620 Grand Mission Blvd Ste I", "City": "Richmond", "State": "TX", "Zip": 774075419, "formated_phone": "832-847-4683", "Status": "not participating", "Icon": "measle_white", "Type": "Pharmacy" }, "geometry": { "type": "Point", "coordinates": [ -95.716164, 29.684556 ] } },
{ "type": "Feature", "properties": { "X": 29.746311, "Y": -95.500189, "Name": "Voss Rd Pharmacy", "Address": "2101 S Voss Rd Ste 1500", "City": "Houston", "State": "TX", "Zip": 770573803, "formated_phone": "832-491-8088", "Status": "not participating", "Icon": "measle_white", "Type": "Pharmacy" }, "geometry": { "type": "Point", "coordinates": [ -95.500189, 29.746311 ] } },
{ "type": "Feature", "properties": { "X": 29.72331, "Y": -95.604696, "Name": "Community of Houston Pharmacy", "Address": "3533 S Dairy Ashford Rd Ste G", "City": "Houston", "State": "TX", "Zip": 770825536, "formated_phone": "832-328-7301", "Status": "not participating", "Icon": "measle_white", "Type": "Pharmacy" }, "geometry": { "type": "Point", "coordinates": [ -95.604696, 29.72331 ] } },
{ "type": "Feature", "properties": { "X": 29.701952, "Y": -95.577677, "Name": "Greenland Pharmacy II", "Address": "11205 Bellaire Blvd Ste B3", "City": "Houston", "State": "TX", "Zip": 770722568, "formated_phone": "936-653-3622", "Status": "open", "Icon": "small_green", "Type": "Pharmacy" }, "geometry": { "type": "Point", "coordinates": [ -95.577677, 29.701952 ] } },
{ "type": "Feature", "properties": { "X": 29.703323, "Y": -95.293631, "Name": "E&E PHARMACY", "Address": "7008 WOODRIDGE DRIVE", "City": "HOUSTON", "State": "TX", "Zip": 77087, "formated_phone": "713-847-8989", "Status": "not participating", "Icon": "measle_white", "Type": "Pharmacy" }, "geometry": { "type": "Point", "coordinates": [ -95.293631, 29.703323 ] } },
{ "type": "Feature", "properties": { "X": 29.685777, "Y": -95.535796, "Name": "Delcey Pharmacy", "Address": "8700 Commerce Park Dr Ste 121", "City": "Houston", "State": "TX", "Zip": 770367423, "formated_phone": "346-701-7188", "Status": "open", "Icon": "small_green", "Type": "Pharmacy" }, "geometry": { "type": "Point", "coordinates": [ -95.535796, 29.685777 ] } },
{ "type": "Feature", "properties": { "X": 29.714345, "Y": -95.495161, "Name": "E-MED PHARMACY 2 LLC", "Address": "6121 Hillcroft St Ste K2", "City": "Houston", "State": "TX", "Zip": 770811007, "formated_phone": "832-804-9237", "Status": "not participating", "Icon": "measle_white", "Type": "Pharmacy" }, "geometry": { "type": "Point", "coordinates": [ -95.495161, 29.714345 ] } },
{ "type": "Feature", "properties": { "X": 29.67519, "Y": -95.54488, "Name": "PROVIDENCE PHARMACY", "Address": "9525 Bissonnet St Ste 250", "City": "Houston", "State": "TX", "Zip": 770368028, "formated_phone": "832-623-7554", "Status": "not participating", "Icon": "measle_white", "Type": "Pharmacy" }, "geometry": { "type": "Point", "coordinates": [ -95.54488, 29.67519 ] } },
{ "type": "Feature", "properties": { "X": 29.705341, "Y": -95.549463, "Name": "Maxcare Pharmacy", "Address": "9440 bellaire blvd suite 110", "City": "houston", "State": "TX", "Zip": 77036, "formated_phone": "832-704-7850", "Status": "open", "Icon": "small_green", "Type": "Pharmacy" }, "geometry": { "type": "Point", "coordinates": [ -95.549463, 29.705341 ] } },
{ "type": "Feature", "properties": { "X": 29.746883, "Y": -95.606648, "Name": "The Mercy Pharmacy", "Address": "1880 S Dairy Ashford Rd Ste 209", "City": "Houston", "State": "TX", "Zip": 770774759, "formated_phone": "833-781-8155", "Status": "not participating", "Icon": "measle_white", "Type": "Pharmacy" }, "geometry": { "type": "Point", "coordinates": [ -95.606648, 29.746883 ] } },
{ "type": "Feature", "properties": { "X": 29.713871, "Y": -95.572035, "Name": "UPRISE PHARMACY", "Address": "6186 B WILCREST DR", "City": "HOUSTON", "State": "TX", "Zip": 77072, "formated_phone": "281-406-8790", "Status": "unknown", "Icon": "small_yellow", "Type": "Pharmacy" }, "geometry": { "type": "Point", "coordinates": [ -95.572035, 29.713871 ] } },
{ "type": "Feature", "properties": { "X": 29.597683, "Y": -95.527501, "Name": "Iwo Pharmacy & Wellness", "Address": "2168  Texas Parkway ste. B", "City": "missouri city", "State": "TX", "Zip": 77489, "formated_phone": "346-304-2903", "Status": "not participating", "Icon": "measle_white", "Type": "Pharmacy" }, "geometry": { "type": "Point", "coordinates": [ -95.527501, 29.597683 ] } },
{ "type": "Feature", "properties": { "X": 29.738997, "Y": -95.44217, "Name": "Apteek Pharmacy", "Address": "2900 Weslayan St Suites B And C", "City": "Houston", "State": "TX", "Zip": 770275132, "formated_phone": "832-307-1678", "Status": "open", "Icon": "small_green", "Type": "Pharmacy" }, "geometry": { "type": "Point", "coordinates": [ -95.44217, 29.738997 ] } },
{ "type": "Feature", "properties": { "X": 29.629165, "Y": -95.59974, "Name": "MedHope Pharmacy", "Address": "12946 Dairy Ashford Rd Suite # 450", "City": "Sugar Land", "State": "TX", "Zip": 77478, "formated_phone": "281-203-7829", "Status": "open", "Icon": "small_green", "Type": "Pharmacy" }, "geometry": { "type": "Point", "coordinates": [ -95.59974, 29.629165 ] } },
{ "type": "Feature", "properties": { "X": 29.704506, "Y": -95.615905, "Name": "BAO TAM PHARMACY", "Address": "13216 Bellaire Blvd", "City": "Houston", "State": "TX", "Zip": 770832634, "formated_phone": "832-379-3472", "Status": "unknown", "Icon": "small_yellow", "Type": "Pharmacy" }, "geometry": { "type": "Point", "coordinates": [ -95.615905, 29.704506 ] } },
{ "type": "Feature", "properties": { "X": 29.623946, "Y": -95.603573, "Name": "PRO MED RX", "Address": "13134 Dairy Ashford Road Ste 900", "City": "Sugar Land", "State": "TX", "Zip": 77478, "formated_phone": "281-313-0730", "Status": "not participating", "Icon": "measle_white", "Type": "Pharmacy" }, "geometry": { "type": "Point", "coordinates": [ -95.603573, 29.623946 ] } },
{ "type": "Feature", "properties": { "X": 29.601792, "Y": -95.526001, "Name": "LIGHTCARE RX", "Address": "1705 Texas Pkwy Ste C", "City": "Missouri City", "State": "TX", "Zip": 774892171, "formated_phone": "832-987-1795", "Status": "not participating", "Icon": "measle_white", "Type": "Pharmacy" }, "geometry": { "type": "Point", "coordinates": [ -95.526001, 29.601792 ] } },
{ "type": "Feature", "properties": { "X": 29.624191, "Y": -95.610457, "Name": "APEX PHARMACY", "Address": "9722 Highway 90A Ste 108", "City": "Sugar Land", "State": "TX", "Zip": 774784626, "formated_phone": "346-209-5730", "Status": "open", "Icon": "small_green", "Type": "Pharmacy" }, "geometry": { "type": "Point", "coordinates": [ -95.610457, 29.624191 ] } },
{ "type": "Feature", "properties": { "X": 29.743966, "Y": -95.390943, "Name": "Community, A Walgreens Pharmacy #21239", "Address": "3217 Montrose Blvd", "City": "Houston", "State": "TX", "Zip": 770063943, "formated_phone": "713-258-1582", "Status": "open", "Icon": "small_green", "Type": "Pharmacy" }, "geometry": { "type": "Point", "coordinates": [ -95.390943, 29.743966 ] } },
{ "type": "Feature", "properties": { "X": 29.715411, "Y": -95.615225, "Name": "Vascore Pharmacy LLC", "Address": "4020 Synott Rd # suite70a", "City": "Houston", "State": "TX", "Zip": 770825216, "formated_phone": "832-379-3200", "Status": "not participating", "Icon": "measle_white", "Type": "Pharmacy" }, "geometry": { "type": "Point", "coordinates": [ -95.615225, 29.715411 ] } },
{ "type": "Feature", "properties": { "X": 29.744377, "Y": -95.384653, "Name": "Capsule Pharmacy", "Address": "243 Westheimer Rd Suite 110", "City": "Houston", "State": "TX", "Zip": 770063221, "formated_phone": "832-662-6000", "Status": "open", "Icon": "small_green", "Type": "Pharmacy" }, "geometry": { "type": "Point", "coordinates": [ -95.384653, 29.744377 ] } },
{ "type": "Feature", "properties": { "X": 29.653694, "Y": -95.564266, "Name": "Mahogany Pharmacy LLC", "Address": "10550 W BELLFORT Ste. 150", "City": "HOUSTON", "State": "TX", "Zip": 77031, "formated_phone": "832-230-5902", "Status": "not participating", "Icon": "measle_white", "Type": "Pharmacy" }, "geometry": { "type": "Point", "coordinates": [ -95.564266, 29.653694 ] } },
{ "type": "Feature", "properties": { "X": 29.615332, "Y": -95.563432, "Name": "The Apothecary", "Address": "435 FM 1092 Road Suite F1", "City": "Stafford", "State": "TX", "Zip": 77477, "formated_phone": "281-208-7218", "Status": "not participating", "Icon": "measle_white", "Type": "Pharmacy" }, "geometry": { "type": "Point", "coordinates": [ -95.563432, 29.615332 ] } },
{ "type": "Feature", "properties": { "X": 29.623377, "Y": -95.597891, "Name": "Rx2Go Drugstore", "Address": "339 Southwestern Blvd", "City": "Sugar Land", "State": "TX", "Zip": 77478, "formated_phone": "832-916-2159", "Status": "not participating", "Icon": "measle_white", "Type": "Pharmacy" }, "geometry": { "type": "Point", "coordinates": [ -95.597891, 29.623377 ] } },
{ "type": "Feature", "properties": { "X": 29.706357, "Y": -95.481181, "Name": "Pro-Med Rx", "Address": "5716 BELLAIRE SUITE J", "City": "Houston", "State": "TX", "Zip": 77081, "formated_phone": "346-204-5882", "Status": "not participating", "Icon": "measle_white", "Type": "Pharmacy" }, "geometry": { "type": "Point", "coordinates": [ -95.481181, 29.706357 ] } },
{ "type": "Feature", "properties": { "X": 29.713955, "Y": -95.377751, "Name": "HEB PHARMACY #756", "Address": "6055 SOUTH FREEWAY", "City": "HOUSTON", "State": "TX", "Zip": 77004, "formated_phone": "713-522-2100", "Status": "not participating", "Icon": "measle_white", "Type": "Pharmacy" }, "geometry": { "type": "Point", "coordinates": [ -95.377751, 29.713955 ] } },
{ "type": "Feature", "properties": { "X": 29.706154, "Y": -95.550651, "Name": "Apollo Pharmacy", "Address": "9600 Bellaire Blvd Ste 106", "City": "Houston", "State": "TX", "Zip": 770364534, "formated_phone": "832-516-8023", "Status": "not participating", "Icon": "measle_white", "Type": "Pharmacy" }, "geometry": { "type": "Point", "coordinates": [ -95.550651, 29.706154 ] } },
{ "type": "Feature", "properties": { "X": 29.681926, "Y": -95.560476, "Name": "Lux Pharmacy", "Address": "9404 W Sam Houston Pkwy S Unit Ste-E Ste-E", "City": "Houston", "State": "TX", "Zip": 770992053, "formated_phone": "832-810-0300", "Status": "not participating", "Icon": "measle_white", "Type": "Pharmacy" }, "geometry": { "type": "Point", "coordinates": [ -95.560476, 29.681926 ] } },
{ "type": "Feature", "properties": { "X": 29.615826, "Y": -95.557501, "Name": "CARE 101 PHARMACY", "Address": "2815 N Main St", "City": "Stafford", "State": "TX", "Zip": 774775511, "formated_phone": "281-969-8553", "Status": "not participating", "Icon": "measle_white", "Type": "Pharmacy" }, "geometry": { "type": "Point", "coordinates": [ -95.557501, 29.615826 ] } },
{ "type": "Feature", "properties": { "X": 29.716695, "Y": -95.493798, "Name": "MACE CARE PHARMACY LLC", "Address": "6306 GULFTON ST STE 102", "City": "HOUSTON", "State": "TX", "Zip": 77081, "formated_phone": "832-925-7033", "Status": "not participating", "Icon": "measle_white", "Type": "Pharmacy" }, "geometry": { "type": "Point", "coordinates": [ -95.493798, 29.716695 ] } },
{ "type": "Feature", "properties": { "X": 29.632709, "Y": -95.597942, "Name": "MEDICI PHARMACY", "Address": "12930 Dairy Ashford Rd Ste 702", "City": "Sugar Land", "State": "TX", "Zip": 774784667, "formated_phone": "713-993-7770", "Status": "open", "Icon": "small_green", "Type": "Pharmacy" }, "geometry": { "type": "Point", "coordinates": [ -95.597942, 29.632709 ] } },
{ "type": "Feature", "properties": { "X": 29.688738, "Y": -95.463511, "Name": "HEB PHARMACY #745", "Address": "4955 Beechnut", "City": "Houston", "State": "TX", "Zip": 770961600, "formated_phone": "713-664-4700", "Status": "not participating", "Icon": "measle_white", "Type": "Pharmacy" }, "geometry": { "type": "Point", "coordinates": [ -95.463511, 29.688738 ] } },
{ "type": "Feature", "properties": { "X": 29.700986, "Y": -95.517919, "Name": "PHARMACY PLACE", "Address": "7330 Southwest Fwy Ste G", "City": "Houston", "State": "TX", "Zip": 770742178, "formated_phone": "832-962-4974", "Status": "not participating", "Icon": "measle_white", "Type": "Pharmacy" }, "geometry": { "type": "Point", "coordinates": [ -95.517919, 29.700986 ] } },
{ "type": "Feature", "properties": { "X": 29.689218, "Y": -95.597296, "Name": "GREENLAND PHARMACY #3", "Address": "12454 Beechnut St Ste 8", "City": "Houston", "State": "TX", "Zip": 770723987, "formated_phone": "832-461-5131", "Status": "not participating", "Icon": "measle_white", "Type": "Pharmacy" }, "geometry": { "type": "Point", "coordinates": [ -95.597296, 29.689218 ] } },
{ "type": "Feature", "properties": { "X": 29.689207, "Y": -95.687021, "Name": "UniqHealth Pharmacy", "Address": "8433 Fm 1464 Rd Ste S", "City": "Richmond", "State": "TX", "Zip": 774071103, "formated_phone": "281-937-7307", "Status": "not participating", "Icon": "measle_white", "Type": "Pharmacy" }, "geometry": { "type": "Point", "coordinates": [ -95.687021, 29.689207 ] } },
{ "type": "Feature", "properties": { "X": 29.695278, "Y": -95.40147, "Name": "Pyramids Pharmacy TMC", "Address": "7400 Fannin St Ste 120", "City": "Houston", "State": "TX", "Zip": 770541949, "formated_phone": "866-293-9097", "Status": "unknown", "Icon": "small_yellow", "Type": "Pharmacy" }, "geometry": { "type": "Point", "coordinates": [ -95.40147, 29.695278 ] } },
{ "type": "Feature", "properties": { "X": 29.709033, "Y": -95.400335, "Name": "Houston Methodist Pharmacy", "Address": "6565 Fannin St", "City": "Houston", "State": "TX", "Zip": 770302703, "formated_phone": "713-441-2141", "Status": "open", "Icon": "small_green", "Type": "Pharmacy" }, "geometry": { "type": "Point", "coordinates": [ -95.400335, 29.709033 ] } },
{ "type": "Feature", "properties": { "X": 29.609274, "Y": -95.564604, "Name": "Lakeview Pharmacy", "Address": "610 Murphy Rd Ste 109", "City": "Stafford", "State": "TX", "Zip": 774775926, "formated_phone": "281-969-5221", "Status": "not participating", "Icon": "measle_white", "Type": "Pharmacy" }, "geometry": { "type": "Point", "coordinates": [ -95.564604, 29.609274 ] } },
{ "type": "Feature", "properties": { "X": 29.710412, "Y": -95.495613, "Name": "Legacy Community Health Services Pharmacy - Sharpstown", "Address": "6441 High Star Dr Suite 100", "City": "Houston", "State": "TX", "Zip": 770745005, "formated_phone": "713-814-3499", "Status": "open", "Icon": "small_green", "Type": "Pharmacy" }, "geometry": { "type": "Point", "coordinates": [ -95.495613, 29.710412 ] } },
{ "type": "Feature", "properties": { "X": 29.783056, "Y": -95.630085, "Name": "Empower Pharmacy", "Address": "700 Westlake Park Blvd Ste 1800", "City": "Houston", "State": "TX", "Zip": 77079, "formated_phone": "832-678-4417", "Status": "not participating", "Icon": "measle_white", "Type": "Pharmacy" }, "geometry": { "type": "Point", "coordinates": [ -95.630085, 29.783056 ] } },
{ "type": "Feature", "properties": { "X": 29.699446, "Y": -95.688819, "Name": "ELIZ PHARMACY", "Address": "7120 Fm 1464 Rd Ste D", "City": "Richmond", "State": "TX", "Zip": 774076400, "formated_phone": "832-886-4526", "Status": "not participating", "Icon": "measle_white", "Type": "Pharmacy" }, "geometry": { "type": "Point", "coordinates": [ -95.688819, 29.699446 ] } },
{ "type": "Feature", "properties": { "X": 29.751548, "Y": -95.558807, "Name": "OnePoint Patient Care, LLC", "Address": "888 W Sam Houston Pkwy S Ste 270", "City": "Houston", "State": "TX", "Zip": 770421990, "formated_phone": "281-925-7771", "Status": "not participating", "Icon": "measle_white", "Type": "Pharmacy" }, "geometry": { "type": "Point", "coordinates": [ -95.558807, 29.751548 ] } },
{ "type": "Feature", "properties": { "X": 29.674464, "Y": -95.556719, "Name": "Mortar & Pestle Pharmacy", "Address": "10109 Bissonnet St Ste B", "City": "Houston", "State": "TX", "Zip": 770367859, "formated_phone": "713-367-1180", "Status": "not participating", "Icon": "measle_white", "Type": "Pharmacy" }, "geometry": { "type": "Point", "coordinates": [ -95.556719, 29.674464 ] } },
{ "type": "Feature", "properties": { "X": 29.604749, "Y": -95.5263, "Name": "IBO Pharmacy", "Address": "1544 Kenforest Dr", "City": "Missouri City", "State": "TX", "Zip": 774892165, "formated_phone": "346-570-2663", "Status": "not participating", "Icon": "measle_white", "Type": "Pharmacy" }, "geometry": { "type": "Point", "coordinates": [ -95.5263, 29.604749 ] } },
{ "type": "Feature", "properties": { "X": 29.60953, "Y": -95.564608, "Name": "Halowells Pharmacy", "Address": "630 Murphy Road #110", "City": "stafford", "State": "TX", "Zip": 77477, "formated_phone": "346-341-7113", "Status": "not participating", "Icon": "measle_white", "Type": "Pharmacy" }, "geometry": { "type": "Point", "coordinates": [ -95.564608, 29.60953 ] } },
{ "type": "Feature", "properties": { "X": 29.723629, "Y": -95.495153, "Name": "Avita Pharmacy", "Address": "6260 Westpark Dr Suite 105", "City": "Houston", "State": "TX", "Zip": 77057, "formated_phone": "713-324-7800", "Status": "unknown", "Icon": "small_yellow", "Type": "Pharmacy" }, "geometry": { "type": "Point", "coordinates": [ -95.495153, 29.723629 ] } }
]
}
