{
"type": "FeatureCollection",
"name": "Fire_Stations_Brays_Buffer_2miles_EPSG4326",
"crs": { "type": "name", "properties": { "name": "urn:ogc:def:crs:OGC:1.3:CRS84" } },
"features": [
{ "type": "Feature", "properties": { "OBJECTID": 11776, "PERMANENT_": "{99B67E96-463E-433C-B277-1D8779F3BF58}", "SOURCE_FEA": "10150829", "SOURCE_DAT": "7615ac6e-8e37-4d90-a2bb-03dd6a92c8ae", "SOURCE_D_1": "740 TNMC Update 1\/29\/2017", "SOURCE_ORI": "U.S. Geological Survey", "DATA_SECUR": 5, "DISTRIBUTI": "E4", "LOADDATE": "2017\/01\/29", "FTYPE": 740, "FCODE": 74026, "NAME": "Houston Fire Department Emergency Medical Services Station 19", "ISLANDMARK": 2, "POINTLOCAT": 1, "ADMINTYPE": 6, "ADDRESSBUI": null, "ADDRESS": "1811 Gregg Street", "CITY": "Houston", "STATE": "TX", "ZIPCODE": "77020", "GNIS_ID": "2334698", "FOOT_ID": null, "COMPLEX_ID": null, "GLOBALID": "{E082C46C-FF27-4520-9570-BB7763A94EBA}" }, "geometry": { "type": "Point", "coordinates": [ -95.336166381757039, 29.777185440035218 ] } },
{ "type": "Feature", "properties": { "OBJECTID": 11778, "PERMANENT_": "{35479174-5CFB-4FEB-A6B4-C4FACF0316EF}", "SOURCE_FEA": null, "SOURCE_DAT": "7615ac6e-8e37-4d90-a2bb-03dd6a92c8ae", "SOURCE_D_1": "740 TNMC Update 1\/29\/2017", "SOURCE_ORI": "U.S. Geological Survey", "DATA_SECUR": 5, "DISTRIBUTI": "E4", "LOADDATE": "2017\/01\/29", "FTYPE": 740, "FCODE": 74026, "NAME": "Stafford Volunteer Fire Department Station 3", "ISLANDMARK": 2, "POINTLOCAT": 4, "ADMINTYPE": null, "ADDRESSBUI": null, "ADDRESS": "11300 South Kirkwood Road", "CITY": "Meadows Place", "STATE": "TX", "ZIPCODE": "77477", "GNIS_ID": "2655606", "FOOT_ID": null, "COMPLEX_ID": null, "GLOBALID": "{75FEE6FB-5616-4A18-ABC1-C80D2D819735}" }, "geometry": { "type": "Point", "coordinates": [ -95.582092284803423, 29.652830123681412 ] } },
{ "type": "Feature", "properties": { "OBJECTID": 13350, "PERMANENT_": "{BC4C213D-477D-4850-B8B6-81744E1CC634}", "SOURCE_FEA": "9999999999", "SOURCE_DAT": "{CC44F99C-6658-4584-B606-926E498D5C82}", "SOURCE_D_1": "TNMC VWE DB Build - Vol Update", "SOURCE_ORI": "U.S. Geological Survey", "DATA_SECUR": 5, "DISTRIBUTI": "E4", "LOADDATE": "2016\/08\/12", "FTYPE": 740, "FCODE": 74026, "NAME": "Houston Fire Department Station 24", "ISLANDMARK": 2, "POINTLOCAT": 4, "ADMINTYPE": null, "ADDRESSBUI": null, "ADDRESS": "2625 Reed Road", "CITY": "Houston", "STATE": "TX", "ZIPCODE": "77051", "GNIS_ID": "2655612", "FOOT_ID": null, "COMPLEX_ID": null, "GLOBALID": "{4EB3E8B7-F9CC-471E-A030-CF022859D730}" }, "geometry": { "type": "Point", "coordinates": [ -95.389853703333969, 29.658025575243361 ] } },
{ "type": "Feature", "properties": { "OBJECTID": 18455, "PERMANENT_": "{699F3231-7449-41ED-B3E8-F54B454B411B}", "SOURCE_FEA": "10150825", "SOURCE_DAT": "7615ac6e-8e37-4d90-a2bb-03dd6a92c8ae", "SOURCE_D_1": "740 TNMC Update 1\/29\/2017", "SOURCE_ORI": "U.S. Geological Survey", "DATA_SECUR": 5, "DISTRIBUTI": "E4", "LOADDATE": "2017\/01\/29", "FTYPE": 740, "FCODE": 74026, "NAME": "Houston Fire Department Emergency Medical Services Station 16", "ISLANDMARK": 2, "POINTLOCAT": 1, "ADMINTYPE": 6, "ADDRESSBUI": null, "ADDRESS": "1700 Richmond Avenue", "CITY": "Houston", "STATE": "TX", "ZIPCODE": "77098", "GNIS_ID": "2334695", "FOOT_ID": null, "COMPLEX_ID": null, "GLOBALID": "{6E786FC0-9789-49E1-AAFC-958D5B22AE03}" }, "geometry": { "type": "Point", "coordinates": [ -95.402320861511839, 29.734638214701356 ] } },
{ "type": "Feature", "properties": { "OBJECTID": 18456, "PERMANENT_": "{7A95CE02-E0B2-4D49-8862-CCA22DCD81B8}", "SOURCE_FEA": "10150839", "SOURCE_DAT": "7615ac6e-8e37-4d90-a2bb-03dd6a92c8ae", "SOURCE_D_1": "740 TNMC Update 1\/29\/2017", "SOURCE_ORI": "U.S. Geological Survey", "DATA_SECUR": 5, "DISTRIBUTI": "E4", "LOADDATE": "2017\/01\/29", "FTYPE": 740, "FCODE": 74026, "NAME": "Houston Fire Station Emergency Medical Services Station 33", "ISLANDMARK": 2, "POINTLOCAT": 1, "ADMINTYPE": 6, "ADDRESSBUI": null, "ADDRESS": "7117 Fannin Street", "CITY": "Houston", "STATE": "TX", "ZIPCODE": "77030", "GNIS_ID": "2334711", "FOOT_ID": null, "COMPLEX_ID": null, "GLOBALID": "{3FA2C3AD-997A-4C3B-810A-0F25C882071C}" }, "geometry": { "type": "Point", "coordinates": [ -95.4013290405898, 29.70008850114975 ] } },
{ "type": "Feature", "properties": { "OBJECTID": 21554, "PERMANENT_": "7202aad7-900a-4635-b76c-380e827770eb", "SOURCE_FEA": "10160493", "SOURCE_DAT": "b4ad3766-f3e5-481a-bf40-63e44f98e7c6", "SOURCE_D_1": "740 TNMC Update 11\/09\/2016 01:32:48", "SOURCE_ORI": "U.S. Geological Survey", "DATA_SECUR": 5, "DISTRIBUTI": "E4", "LOADDATE": "2016\/11\/09", "FTYPE": 740, "FCODE": 74026, "NAME": "Northeast Fort Bend County Fire Department", "ISLANDMARK": 2, "POINTLOCAT": 1, "ADMINTYPE": 0, "ADDRESSBUI": null, "ADDRESS": "14007 Old Richmond Road", "CITY": "Sugar Land", "STATE": "TX", "ZIPCODE": "77478", "GNIS_ID": "2334424", "FOOT_ID": null, "COMPLEX_ID": null, "GLOBALID": "{D6EB8924-57DF-4E82-A718-4703D6769C6C}" }, "geometry": { "type": "Point", "coordinates": [ -95.632347106848812, 29.671237945840556 ] } },
{ "type": "Feature", "properties": { "OBJECTID": 31871, "PERMANENT_": "{AF5BE8B6-8091-493C-A410-7C08D4BB07A9}", "SOURCE_FEA": null, "SOURCE_DAT": "0ba95072-9961-4956-bca7-5cd6c77d166e", "SOURCE_D_1": "740 TNMC Update 7\/14\/2017", "SOURCE_ORI": "U.S. Geological Survey", "DATA_SECUR": 5, "DISTRIBUTI": "E4", "LOADDATE": "2017\/07\/14", "FTYPE": 740, "FCODE": 74026, "NAME": "Sugar Land Fire Department Chief Administrative Offices", "ISLANDMARK": 2, "POINTLOCAT": 1, "ADMINTYPE": 6, "ADDRESSBUI": null, "ADDRESS": "10405 Corporate Drive", "CITY": "Sugar Land", "STATE": "TX", "ZIPCODE": "77479", "GNIS_ID": "2334794", "FOOT_ID": null, "COMPLEX_ID": null, "GLOBALID": "{52B145EF-0615-4914-B0D5-B3A9984B0238}" }, "geometry": { "type": "Point", "coordinates": [ -95.600471496614588, 29.633600234875924 ] } },
{ "type": "Feature", "properties": { "OBJECTID": 32978, "PERMANENT_": "{CC21F855-6225-48F7-8FF3-56D1A5E2B316}", "SOURCE_FEA": "10144684", "SOURCE_DAT": "f23887f8-742c-49ff-9f87-829981c2ed40", "SOURCE_D_1": "740 TNMC Update 9\/18\/2017", "SOURCE_ORI": "U.S. Geological Survey", "DATA_SECUR": 5, "DISTRIBUTI": "E4", "LOADDATE": "2017\/09\/18", "FTYPE": 740, "FCODE": 74026, "NAME": "Houston Fire Station 8", "ISLANDMARK": 2, "POINTLOCAT": 1, "ADMINTYPE": 6, "ADDRESSBUI": null, "ADDRESS": "1919 Louisiana Street", "CITY": "Houston", "STATE": "TX", "ZIPCODE": "77002", "GNIS_ID": "2334689", "FOOT_ID": null, "COMPLEX_ID": null, "GLOBALID": "{0583B553-5E9E-4DE4-A3F8-2DF287DC8B91}" }, "geometry": { "type": "Point", "coordinates": [ -95.372482298863659, 29.751054763137031 ] } },
{ "type": "Feature", "properties": { "OBJECTID": 33727, "PERMANENT_": "{ABEE78D0-421A-4CF2-80DE-A2617EA08B36}", "SOURCE_FEA": "10150847", "SOURCE_DAT": "8740e73b-ffe8-4b6f-9b22-31b44ea1d47f", "SOURCE_D_1": "740 TNMC Update 8\/29\/2017", "SOURCE_ORI": "U.S. Geological Survey", "DATA_SECUR": 5, "DISTRIBUTI": "E4", "LOADDATE": "2017\/08\/29", "FTYPE": 740, "FCODE": 74026, "NAME": "Houston Fire Department Fire Station 73", "ISLANDMARK": 2, "POINTLOCAT": 4, "ADMINTYPE": 6, "ADDRESSBUI": null, "ADDRESS": "9640 South Wilcrest Drive", "CITY": "Houston", "STATE": "TX", "ZIPCODE": "77099", "GNIS_ID": "2334750", "FOOT_ID": null, "COMPLEX_ID": null, "GLOBALID": "{EBA18183-31C8-4A08-9DFC-9A867B39CF52}" }, "geometry": { "type": "Point", "coordinates": [ -95.570838928440821, 29.67279052717393 ] } },
{ "type": "Feature", "properties": { "OBJECTID": 33823, "PERMANENT_": "{66CD4790-EF9D-4643-8BDD-DD13F2891A6D}", "SOURCE_FEA": "10425631", "SOURCE_DAT": "f23887f8-742c-49ff-9f87-829981c2ed40", "SOURCE_D_1": "740 TNMC Update 9\/18\/2017", "SOURCE_ORI": "U.S. Geological Survey", "DATA_SECUR": 5, "DISTRIBUTI": "E4", "LOADDATE": "2017\/09\/18", "FTYPE": 740, "FCODE": 74026, "NAME": "Houston Fire Station 7", "ISLANDMARK": 2, "POINTLOCAT": 1, "ADMINTYPE": 6, "ADDRESSBUI": null, "ADDRESS": "1402 Elgin Street", "CITY": "Houston", "STATE": "TX", "ZIPCODE": "77004", "GNIS_ID": "2031017", "FOOT_ID": null, "COMPLEX_ID": null, "GLOBALID": "{F3A0F104-CA5A-49A3-8C79-AABAC2B2D2BE}" }, "geometry": { "type": "Point", "coordinates": [ -95.373596191849657, 29.739273071465202 ] } },
{ "type": "Feature", "properties": { "OBJECTID": 33824, "PERMANENT_": "{9E05DC98-3ACB-4D86-8F6B-9B10E820563E}", "SOURCE_FEA": "10150831", "SOURCE_DAT": "f23887f8-742c-49ff-9f87-829981c2ed40", "SOURCE_D_1": "740 TNMC Update 9\/18\/2017", "SOURCE_ORI": "U.S. Geological Survey", "DATA_SECUR": 5, "DISTRIBUTI": "E4", "LOADDATE": "2017\/09\/18", "FTYPE": 740, "FCODE": 74026, "NAME": "Houston Fire Station 25", "ISLANDMARK": 2, "POINTLOCAT": 1, "ADMINTYPE": 6, "ADDRESSBUI": null, "ADDRESS": "3902 Scott Street", "CITY": "Houston", "STATE": "TX", "ZIPCODE": "77004", "GNIS_ID": "2334703", "FOOT_ID": null, "COMPLEX_ID": null, "GLOBALID": "{D9F71850-BACE-4DC5-8833-8F5F5A622121}" }, "geometry": { "type": "Point", "coordinates": [ -95.353355407563427, 29.718709946432909 ] } },
{ "type": "Feature", "properties": { "OBJECTID": 34216, "PERMANENT_": "{C0082D58-C553-4F90-BC2F-1789209E8219}", "SOURCE_FEA": "10150729", "SOURCE_DAT": "0902c533-da7b-4c01-86a4-0f62703aaec9", "SOURCE_D_1": "740 TNMC Update 8\/30\/2017", "SOURCE_ORI": "U.S. Geological Survey", "DATA_SECUR": 5, "DISTRIBUTI": "E4", "LOADDATE": "2017\/08\/30", "FTYPE": 740, "FCODE": 74026, "NAME": "Houston Fire Department Station 68", "ISLANDMARK": 2, "POINTLOCAT": 1, "ADMINTYPE": 6, "ADDRESSBUI": null, "ADDRESS": "8602 Bissonnet Street", "CITY": "Houston", "STATE": "TX", "ZIPCODE": "77074", "GNIS_ID": "2334746", "FOOT_ID": null, "COMPLEX_ID": null, "GLOBALID": "{07CDBD76-A909-4A26-AE3C-09A3E524789D}" }, "geometry": { "type": "Point", "coordinates": [ -95.528747559116269, 29.677032470111357 ] } },
{ "type": "Feature", "properties": { "OBJECTID": 34274, "PERMANENT_": "{84C51A01-D90E-4B58-9A63-A7722B659FA4}", "SOURCE_FEA": "10150827", "SOURCE_DAT": "f23887f8-742c-49ff-9f87-829981c2ed40", "SOURCE_D_1": "740 TNMC Update 9\/18\/2017", "SOURCE_ORI": "U.S. Geological Survey", "DATA_SECUR": 5, "DISTRIBUTI": "E4", "LOADDATE": "2017\/09\/18", "FTYPE": 740, "FCODE": 74026, "NAME": "Houston Fire Station 17", "ISLANDMARK": 2, "POINTLOCAT": 1, "ADMINTYPE": 6, "ADDRESSBUI": null, "ADDRESS": "2805 Navigation Boulevard", "CITY": "Houston", "STATE": "TX", "ZIPCODE": "77003", "GNIS_ID": "2334696", "FOOT_ID": null, "COMPLEX_ID": null, "GLOBALID": "{2819C155-4DEF-4324-B7AA-BD39EF479DFF}" }, "geometry": { "type": "Point", "coordinates": [ -95.341377258090247, 29.756996154369109 ] } },
{ "type": "Feature", "properties": { "OBJECTID": 37009, "PERMANENT_": "{102283FB-D3F3-4BDF-953B-478775AFCA52}", "SOURCE_FEA": "10408998", "SOURCE_DAT": "343047e8-7b82-4f83-9427-b9f9effbc557", "SOURCE_D_1": "740 TNMC Update 12\/27\/2017", "SOURCE_ORI": "U.S. Geological Survey", "DATA_SECUR": 5, "DISTRIBUTI": "E4", "LOADDATE": "2017\/12\/27", "FTYPE": 740, "FCODE": 74026, "NAME": "Stafford Volunteer Fire Department Station 2", "ISLANDMARK": 2, "POINTLOCAT": 1, "ADMINTYPE": 6, "ADDRESSBUI": null, "ADDRESS": "10210 Mula Road", "CITY": "Stafford", "STATE": "TX", "ZIPCODE": "77477", "GNIS_ID": "2334591", "FOOT_ID": null, "COMPLEX_ID": null, "GLOBALID": "{30A96A4D-B35C-4195-9AF6-D2A4F52904BF}" }, "geometry": { "type": "Point", "coordinates": [ -95.558197021889043, 29.633113861554857 ] } },
{ "type": "Feature", "properties": { "OBJECTID": 38251, "PERMANENT_": "{5D37E906-AF80-4C33-89BB-D41B97BEB195}", "SOURCE_FEA": "10425639", "SOURCE_DAT": "7280c493-9a64-4e8e-9372-f83c81a575be", "SOURCE_D_1": "740 TNMC Update 2\/12\/2018", "SOURCE_ORI": "U.S. Geological Survey", "DATA_SECUR": 5, "DISTRIBUTI": "E4", "LOADDATE": "2018\/02\/12", "FTYPE": 740, "FCODE": 74026, "NAME": "Houston Fire Department Station 42", "ISLANDMARK": 2, "POINTLOCAT": 1, "ADMINTYPE": 6, "ADDRESSBUI": null, "ADDRESS": "8675 Clinton Drive", "CITY": "Houston", "STATE": "TX", "ZIPCODE": "77029", "GNIS_ID": "2334720", "FOOT_ID": null, "COMPLEX_ID": null, "GLOBALID": "{6407263B-6312-4F76-8324-9D8C88EB77FF}" }, "geometry": { "type": "Point", "coordinates": [ -95.272705078173459, 29.74359512361972 ] } },
{ "type": "Feature", "properties": { "OBJECTID": 38484, "PERMANENT_": "{3C25D061-7288-430C-8260-60361C3E388B}", "SOURCE_FEA": "10409918", "SOURCE_DAT": "7280c493-9a64-4e8e-9372-f83c81a575be", "SOURCE_D_1": "740 TNMC Update 2\/12\/2018", "SOURCE_ORI": "U.S. Geological Survey", "DATA_SECUR": 5, "DISTRIBUTI": "E4", "LOADDATE": "2018\/02\/12", "FTYPE": 740, "FCODE": 74026, "NAME": "Sugar Land Fire Department Station 2", "ISLANDMARK": 2, "POINTLOCAT": 1, "ADMINTYPE": 6, "ADDRESSBUI": null, "ADDRESS": "1040 Industrial Boulevard", "CITY": "Sugar Land", "STATE": "TX", "ZIPCODE": "77478", "GNIS_ID": "2334581", "FOOT_ID": null, "COMPLEX_ID": null, "GLOBALID": "{E01CEF11-5669-4B56-8887-1947E6AA8E78}" }, "geometry": { "type": "Point", "coordinates": [ -95.607292174598186, 29.641052245744412 ] } },
{ "type": "Feature", "properties": { "OBJECTID": 38671, "PERMANENT_": "{BA30478D-A507-4EFB-9642-DC0D937C3EFB}", "SOURCE_FEA": "10139781", "SOURCE_DAT": "7280c493-9a64-4e8e-9372-f83c81a575be", "SOURCE_D_1": "740 TNMC Update 2\/12\/2018", "SOURCE_ORI": "U.S. Geological Survey", "DATA_SECUR": 5, "DISTRIBUTI": "E4", "LOADDATE": "2018\/02\/12", "FTYPE": 740, "FCODE": 74026, "NAME": "Houston Fire Department Station 86", "ISLANDMARK": 2, "POINTLOCAT": 4, "ADMINTYPE": 6, "ADDRESSBUI": null, "ADDRESS": "14300 Briar Forest Drive", "CITY": "Houston", "STATE": "TX", "ZIPCODE": "77077", "GNIS_ID": "2334759", "FOOT_ID": null, "COMPLEX_ID": null, "GLOBALID": "{97C2E682-B4E2-4E83-93BA-9EC0EB7B7A68}" }, "geometry": { "type": "Point", "coordinates": [ -95.637840271573552, 29.756298064860371 ] } },
{ "type": "Feature", "properties": { "OBJECTID": 38726, "PERMANENT_": "{99C07D7F-6A8A-44EC-BB7F-00873FC90CCA}", "SOURCE_FEA": "10425638", "SOURCE_DAT": "6b0a7936-5fca-41c9-b81c-51ac5483549f", "SOURCE_D_1": "740 TNMC Update 2\/15\/2018", "SOURCE_ORI": "U.S. Geological Survey", "DATA_SECUR": 5, "DISTRIBUTI": "E4", "LOADDATE": "2018\/02\/15", "FTYPE": 740, "FCODE": 74026, "NAME": "Houston Fire Department Station 22", "ISLANDMARK": 2, "POINTLOCAT": 1, "ADMINTYPE": 6, "ADDRESSBUI": null, "ADDRESS": "7825 Harrisburg Boulevard", "CITY": "Houston", "STATE": "TX", "ZIPCODE": "77012", "GNIS_ID": "2334701", "FOOT_ID": null, "COMPLEX_ID": null, "GLOBALID": "{E993FAA5-228A-4503-AFCD-C5A1C173CCFC}" }, "geometry": { "type": "Point", "coordinates": [ -95.284645079789797, 29.730583190217377 ] } },
{ "type": "Feature", "properties": { "OBJECTID": 40148, "PERMANENT_": "{F54CCA07-387D-4EAA-8829-244CF90E8F06}", "SOURCE_FEA": "10150845", "SOURCE_DAT": "fb38a046-9fd8-4f40-8c66-a5172fc2f87e", "SOURCE_D_1": "740 TNMC Update 6\/23\/2018", "SOURCE_ORI": "U.S. Geological Survey", "DATA_SECUR": 5, "DISTRIBUTI": "E4", "LOADDATE": "2018\/06\/23", "FTYPE": 740, "FCODE": 74026, "NAME": "Houston Fire Department \/ Emergency Medical Services Station 60", "ISLANDMARK": 2, "POINTLOCAT": 1, "ADMINTYPE": 6, "ADDRESSBUI": null, "ADDRESS": "2925 Jeanetta Street", "CITY": "Houston", "STATE": "TX", "ZIPCODE": "77063", "GNIS_ID": "2334738", "FOOT_ID": null, "COMPLEX_ID": null, "GLOBALID": "{3E9C7AA8-37CF-4D6E-9EC8-1F0D9D717170}" }, "geometry": { "type": "Point", "coordinates": [ -95.524867999508842, 29.733186999172045 ] } },
{ "type": "Feature", "properties": { "OBJECTID": 40185, "PERMANENT_": "{E4D2DA98-C9BE-4CFA-814A-178A1E635E05}", "SOURCE_FEA": "10425657", "SOURCE_DAT": "dbb5cbdc-5068-4578-a9ba-7d9412f94264", "SOURCE_D_1": "740 TNMC Update 6\/11\/2018", "SOURCE_ORI": "U.S. Geological Survey", "DATA_SECUR": 5, "DISTRIBUTI": "E4", "LOADDATE": "2018\/06\/11", "FTYPE": 740, "FCODE": 74026, "NAME": "Houston Fire Department Station 59", "ISLANDMARK": 2, "POINTLOCAT": 1, "ADMINTYPE": 6, "ADDRESSBUI": null, "ADDRESS": "13925 South Post Oak Road", "CITY": "Houston", "STATE": "TX", "ZIPCODE": "77045", "GNIS_ID": "2334737", "FOOT_ID": null, "COMPLEX_ID": null, "GLOBALID": "{7A3D51FB-1C03-4FC6-99E3-3575C5E6C532}" }, "geometry": { "type": "Point", "coordinates": [ -95.464813233246815, 29.624370575381526 ] } },
{ "type": "Feature", "properties": { "OBJECTID": 40189, "PERMANENT_": "{3B9296E4-95DD-4F74-B7DF-8DA6113DEBD3}", "SOURCE_FEA": "10150828", "SOURCE_DAT": "d180e4d5-e149-4b53-bf4a-ab1051dcf3b1", "SOURCE_D_1": "740 TNMC Update 6\/14\/2018", "SOURCE_ORI": "U.S. Geological Survey", "DATA_SECUR": 5, "DISTRIBUTI": "E4", "LOADDATE": "2018\/06\/14", "FTYPE": 740, "FCODE": 74026, "NAME": "Houston Fire Department \/ Emergency Medical Services Station 18", "ISLANDMARK": 2, "POINTLOCAT": 1, "ADMINTYPE": 6, "ADDRESSBUI": null, "ADDRESS": "619 Telephone Road", "CITY": "Houston", "STATE": "TX", "ZIPCODE": "77023", "GNIS_ID": "2334697", "FOOT_ID": null, "COMPLEX_ID": null, "GLOBALID": "{10299D0B-97EC-4732-99A4-2F90F84FCE49}" }, "geometry": { "type": "Point", "coordinates": [ -95.331413269824608, 29.735559463893956 ] } },
{ "type": "Feature", "properties": { "OBJECTID": 40192, "PERMANENT_": "43f764e2-d8a7-408c-ad69-00762f230f2b", "SOURCE_FEA": "10165756", "SOURCE_DAT": "e30d6037-44de-44dd-8866-7aad3143ef96", "SOURCE_D_1": "740 TNMC Update 6\/18\/2018", "SOURCE_ORI": "U.S. Geological Survey", "DATA_SECUR": 5, "DISTRIBUTI": "E4", "LOADDATE": "2018\/06\/18", "FTYPE": 740, "FCODE": 74026, "NAME": "Bellaire Fire Department", "ISLANDMARK": 2, "POINTLOCAT": 1, "ADMINTYPE": 6, "ADDRESSBUI": null, "ADDRESS": "5101 Jessamine Street", "CITY": "Bellaire", "STATE": "TX", "ZIPCODE": "77401", "GNIS_ID": "2334407", "FOOT_ID": null, "COMPLEX_ID": null, "GLOBALID": "{D1D1ABBC-58C9-4CF6-80C8-E89492980FB6}" }, "geometry": { "type": "Point", "coordinates": [ -95.468307495547407, 29.701789855166567 ] } },
{ "type": "Feature", "properties": { "OBJECTID": 40230, "PERMANENT_": "{450A4B21-E02D-46C0-97C0-A31A135D5C4D}", "SOURCE_FEA": "10150830", "SOURCE_DAT": "f4d8a52a-9832-4d0d-9c75-ad724d05a157", "SOURCE_D_1": "740 TNMC Update 6\/9\/2018", "SOURCE_ORI": "U.S. Geological Survey", "DATA_SECUR": 5, "DISTRIBUTI": "E4", "LOADDATE": "2018\/06\/09", "FTYPE": 740, "FCODE": 74026, "NAME": "Houston Fire Department \/ Emergency Medical Services Station 23", "ISLANDMARK": 2, "POINTLOCAT": 1, "ADMINTYPE": 6, "ADDRESSBUI": null, "ADDRESS": "8005 Lawndale Street", "CITY": "Houston", "STATE": "TX", "ZIPCODE": "77012", "GNIS_ID": "2334702", "FOOT_ID": null, "COMPLEX_ID": null, "GLOBALID": "{49F4BF0B-9345-4FDA-9127-372E7724F4B3}" }, "geometry": { "type": "Point", "coordinates": [ -95.279243468663879, 29.716016768994287 ] } },
{ "type": "Feature", "properties": { "OBJECTID": 40231, "PERMANENT_": "{49C21FF4-8B4B-4DD0-A930-02CE13D3A7A8}", "SOURCE_FEA": "10150720", "SOURCE_DAT": "f4d8a52a-9832-4d0d-9c75-ad724d05a157", "SOURCE_D_1": "740 TNMC Update 6\/9\/2018", "SOURCE_ORI": "U.S. Geological Survey", "DATA_SECUR": 5, "DISTRIBUTI": "E4", "LOADDATE": "2018\/06\/09", "FTYPE": 740, "FCODE": 74026, "NAME": "Houston Fire Department Station 40", "ISLANDMARK": 2, "POINTLOCAT": 1, "ADMINTYPE": 6, "ADDRESSBUI": null, "ADDRESS": "5830 Old Spanish Trail", "CITY": "Houston", "STATE": "TX", "ZIPCODE": "77023", "GNIS_ID": "2334718", "FOOT_ID": null, "COMPLEX_ID": null, "GLOBALID": "{3B2EAF6C-5743-4B98-8566-BF87C5A733C6}" }, "geometry": { "type": "Point", "coordinates": [ -95.320823669642294, 29.710121154798216 ] } },
{ "type": "Feature", "properties": { "OBJECTID": 40261, "PERMANENT_": "{C337C251-C708-4D98-8623-35DAC3DF60B3}", "SOURCE_FEA": "10410408", "SOURCE_DAT": "a4e0a4b0-f6a7-4b6e-a63b-0b76f59448dc", "SOURCE_D_1": "740 TNMC Update 6\/12\/2018", "SOURCE_ORI": "U.S. Geological Survey", "DATA_SECUR": 5, "DISTRIBUTI": "E4", "LOADDATE": "2018\/06\/12", "FTYPE": 740, "FCODE": 74026, "NAME": "Missouri City Fire and Rescue Services Station 2", "ISLANDMARK": 2, "POINTLOCAT": 1, "ADMINTYPE": 6, "ADDRESSBUI": null, "ADDRESS": "12043 McLain Boulevard", "CITY": "Houston", "STATE": "TX", "ZIPCODE": "77071", "GNIS_ID": "2334785", "FOOT_ID": null, "COMPLEX_ID": null, "GLOBALID": "{E62B2895-D4DC-4AC0-96E8-A237CA6A316B}" }, "geometry": { "type": "Point", "coordinates": [ -95.518844604187677, 29.630344391415477 ] } },
{ "type": "Feature", "properties": { "OBJECTID": 40271, "PERMANENT_": "{92049350-4D65-4E85-9D62-0F6A9B7B1301}", "SOURCE_FEA": "10150726", "SOURCE_DAT": "e30d6037-44de-44dd-8866-7aad3143ef96", "SOURCE_D_1": "740 TNMC Update 6\/18\/2018", "SOURCE_ORI": "U.S. Geological Survey", "DATA_SECUR": 5, "DISTRIBUTI": "E4", "LOADDATE": "2018\/06\/18", "FTYPE": 740, "FCODE": 74026, "NAME": "Houston Fire Department \/ Emergency Medical Services Station 51", "ISLANDMARK": 2, "POINTLOCAT": 4, "ADMINTYPE": 6, "ADDRESSBUI": null, "ADDRESS": "6902 Bellaire Boulevard", "CITY": "Houston", "STATE": "TX", "ZIPCODE": "77074", "GNIS_ID": "2334729", "FOOT_ID": null, "COMPLEX_ID": null, "GLOBALID": "{71669787-32B8-4D67-A4EB-1486C5681D66}" }, "geometry": { "type": "Point", "coordinates": [ -95.50490570104553, 29.705280304073721 ] } },
{ "type": "Feature", "properties": { "OBJECTID": 40406, "PERMANENT_": "{CB8CA922-4B5F-4B34-9C1C-BB993DA05BA9}", "SOURCE_FEA": "10150855", "SOURCE_DAT": "3a11b556-7b1e-44f2-b9e8-b69c2e07767e", "SOURCE_D_1": "740 TNMC Update 6\/28\/2018", "SOURCE_ORI": "U.S. Geological Survey", "DATA_SECUR": 5, "DISTRIBUTI": "E4", "LOADDATE": "2018\/06\/28", "FTYPE": 740, "FCODE": 74026, "NAME": "Houston Fire Department \/ Emergency Medical Services Station 82", "ISLANDMARK": 2, "POINTLOCAT": 1, "ADMINTYPE": 6, "ADDRESSBUI": null, "ADDRESS": "11250 Braesridge Drive", "CITY": "Houston", "STATE": "TX", "ZIPCODE": "77071", "GNIS_ID": "2334757", "FOOT_ID": null, "COMPLEX_ID": null, "GLOBALID": "{FB464253-FC5E-4F37-8380-3CF13D12DFA7}" }, "geometry": { "type": "Point", "coordinates": [ -95.5113530005695, 29.657930000225171 ] } },
{ "type": "Feature", "properties": { "OBJECTID": 40407, "PERMANENT_": "{94079DB8-CA19-413D-904D-1157A1F5F823}", "SOURCE_FEA": "10425618", "SOURCE_DAT": "3a11b556-7b1e-44f2-b9e8-b69c2e07767e", "SOURCE_D_1": "740 TNMC Update 6\/28\/2018", "SOURCE_ORI": "U.S. Geological Survey", "DATA_SECUR": 5, "DISTRIBUTI": "E4", "LOADDATE": "2018\/06\/28", "FTYPE": 740, "FCODE": 74026, "NAME": "Houston Fire Department Station 3", "ISLANDMARK": 2, "POINTLOCAT": 1, "ADMINTYPE": 6, "ADDRESSBUI": null, "ADDRESS": "3735 West Alabama Street", "CITY": "Houston", "STATE": "TX", "ZIPCODE": "77027", "GNIS_ID": "2334685", "FOOT_ID": null, "COMPLEX_ID": null, "GLOBALID": "{BA03AC40-9FC0-4E7C-AAB3-9CA88E6A60A7}" }, "geometry": { "type": "Point", "coordinates": [ -95.438301000043367, 29.737930000478357 ] } },
{ "type": "Feature", "properties": { "OBJECTID": 40519, "PERMANENT_": "{CE9FBE2E-5B46-4A30-9904-74315A3AC8BC}", "SOURCE_FEA": "10151159", "SOURCE_DAT": "40c497e9-9a33-49df-b63b-0152270cc2e6", "SOURCE_D_1": "740 TNMC Update 7\/14\/2018", "SOURCE_ORI": "U.S. Geological Survey", "DATA_SECUR": 5, "DISTRIBUTI": "E4", "LOADDATE": "2018\/07\/14", "FTYPE": 740, "FCODE": 74026, "NAME": "Houston Fire Department \/ Emergency Medical Services Station 83", "ISLANDMARK": 2, "POINTLOCAT": 4, "ADMINTYPE": 6, "ADDRESSBUI": null, "ADDRESS": "3350 Breezewood Drive", "CITY": "Houston", "STATE": "TX", "ZIPCODE": "77082", "GNIS_ID": "2334758", "FOOT_ID": null, "COMPLEX_ID": null, "GLOBALID": "{571F5AC4-07EA-49F3-AC96-4310255FFEA3}" }, "geometry": { "type": "Point", "coordinates": [ -95.57765600058687, 29.72662199979052 ] } },
{ "type": "Feature", "properties": { "OBJECTID": 40626, "PERMANENT_": "0bedd551-aa22-4a15-b9c4-04122e16a28c", "SOURCE_FEA": "10150851", "SOURCE_DAT": "40c497e9-9a33-49df-b63b-0152270cc2e6", "SOURCE_D_1": "740 TNMC Update 7\/14\/2018", "SOURCE_ORI": "U.S. Geological Survey", "DATA_SECUR": 5, "DISTRIBUTI": "E4", "LOADDATE": "2018\/07\/14", "FTYPE": 740, "FCODE": 74026, "NAME": "Houston Fire Department \/ Emergency Medical Services Station 75", "ISLANDMARK": 2, "POINTLOCAT": 1, "ADMINTYPE": 6, "ADDRESSBUI": null, "ADDRESS": "1995 South Dairy Ashford Road", "CITY": "Houston", "STATE": "TX", "ZIPCODE": "77077", "GNIS_ID": "2334515", "FOOT_ID": null, "COMPLEX_ID": null, "GLOBALID": "{91B7F386-EF30-4C55-BCD4-D7F97A0FF1B0}" }, "geometry": { "type": "Point", "coordinates": [ -95.605573000367016, 29.744750000278341 ] } },
{ "type": "Feature", "properties": { "OBJECTID": 40627, "PERMANENT_": "{E7F3BCC4-3B54-458C-B109-73F425425C57}", "SOURCE_FEA": "10150809", "SOURCE_DAT": "40c497e9-9a33-49df-b63b-0152270cc2e6", "SOURCE_D_1": "740 TNMC Update 7\/14\/2018", "SOURCE_ORI": "U.S. Geological Survey", "DATA_SECUR": 5, "DISTRIBUTI": "E4", "LOADDATE": "2018\/07\/14", "FTYPE": 740, "FCODE": 74026, "NAME": "Houston Fire Department \/ Emergency Medical Services Station 69", "ISLANDMARK": 2, "POINTLOCAT": 1, "ADMINTYPE": 6, "ADDRESSBUI": null, "ADDRESS": "1102 West Sam Houston Parkway South", "CITY": "Houston", "STATE": "TX", "ZIPCODE": "77042", "GNIS_ID": "2334747", "FOOT_ID": null, "COMPLEX_ID": null, "GLOBALID": "{3E883BC8-B174-4A5C-B663-0DFF851BD83D}" }, "geometry": { "type": "Point", "coordinates": [ -95.558732999906695, 29.750967000044795 ] } },
{ "type": "Feature", "properties": { "OBJECTID": 40720, "PERMANENT_": "{B89589E5-A8F2-468B-B3A2-8CF0160BC14A}", "SOURCE_FEA": "10150723", "SOURCE_DAT": "753c0c22-e20d-4216-8415-7f905f9f7d06", "SOURCE_D_1": "740 TNMC Update 6\/19\/2018", "SOURCE_ORI": "U.S. Geological Survey", "DATA_SECUR": 5, "DISTRIBUTI": "E4", "LOADDATE": "2018\/06\/19", "FTYPE": 740, "FCODE": 74026, "NAME": "Houston Fire Department \/ Emergency Medical Services Station 48", "ISLANDMARK": 2, "POINTLOCAT": 1, "ADMINTYPE": 6, "ADDRESSBUI": null, "ADDRESS": "11616 Chimney Rock Road", "CITY": "Houston", "STATE": "TX", "ZIPCODE": "77035", "GNIS_ID": "2334726", "FOOT_ID": null, "COMPLEX_ID": null, "GLOBALID": "{5535839B-1808-4892-AB4E-AE68A1845798}" }, "geometry": { "type": "Point", "coordinates": [ -95.481086731149929, 29.653352737922116 ] } },
{ "type": "Feature", "properties": { "OBJECTID": 40721, "PERMANENT_": "{5020BC36-DDAB-4A51-A198-ACA005618A8C}", "SOURCE_FEA": "10408997", "SOURCE_DAT": "5dc0484a-d9d5-441f-942d-5b72ed9393e5", "SOURCE_D_1": "740 TNMC Update 6\/20\/2018", "SOURCE_ORI": "U.S. Geological Survey", "DATA_SECUR": 5, "DISTRIBUTI": "E4", "LOADDATE": "2018\/06\/20", "FTYPE": 740, "FCODE": 74026, "NAME": "Stafford Fire Department Station Number 1", "ISLANDMARK": 2, "POINTLOCAT": 4, "ADMINTYPE": 6, "ADDRESSBUI": null, "ADDRESS": "2710 South Main Street", "CITY": "Stafford", "STATE": "TX", "ZIPCODE": "77477", "GNIS_ID": "2334590", "FOOT_ID": null, "COMPLEX_ID": null, "GLOBALID": "{5B91469A-7CD7-4F13-B90A-AD416517158D}" }, "geometry": { "type": "Point", "coordinates": [ -95.556190490971517, 29.615238189761811 ] } },
{ "type": "Feature", "properties": { "OBJECTID": 40770, "PERMANENT_": "{4399D393-9367-47A0-9497-A7DD602D0D34}", "SOURCE_FEA": "10150713", "SOURCE_DAT": "23f7f824-60de-46ff-9ece-31b348ae3012", "SOURCE_D_1": "740 TNMC Update 6\/8\/2018", "SOURCE_ORI": "U.S. Geological Survey", "DATA_SECUR": 5, "DISTRIBUTI": "E4", "LOADDATE": "2018\/06\/08", "FTYPE": 740, "FCODE": 74026, "NAME": "Houston Fire Department \/ Emergency Medical Services Station 35", "ISLANDMARK": 2, "POINTLOCAT": 1, "ADMINTYPE": 6, "ADDRESSBUI": null, "ADDRESS": "5535 Van Fleet Street", "CITY": "Houston", "STATE": "TX", "ZIPCODE": "77033", "GNIS_ID": "2334713", "FOOT_ID": null, "COMPLEX_ID": null, "GLOBALID": "{1F226159-5B9E-49A9-AA64-A8FF52AC1D29}" }, "geometry": { "type": "Point", "coordinates": [ -95.338058471798945, 29.674108505289457 ] } },
{ "type": "Feature", "properties": { "OBJECTID": 40864, "PERMANENT_": "{994B4A8B-3CF3-4EF3-8902-0DD1EC66385E}", "SOURCE_FEA": "10150602", "SOURCE_DAT": "23f7f824-60de-46ff-9ece-31b348ae3012", "SOURCE_D_1": "740 TNMC Update 6\/8\/2018", "SOURCE_ORI": "U.S. Geological Survey", "DATA_SECUR": 5, "DISTRIBUTI": "E4", "LOADDATE": "2018\/06\/08", "FTYPE": 740, "FCODE": 74026, "NAME": "Houston Fire Department \/ Emergency Medical Services Station 46", "ISLANDMARK": 2, "POINTLOCAT": 1, "ADMINTYPE": 6, "ADDRESSBUI": null, "ADDRESS": "3902 Corder Street", "CITY": "Houston", "STATE": "TX", "ZIPCODE": "77021", "GNIS_ID": "2334724", "FOOT_ID": null, "COMPLEX_ID": null, "GLOBALID": "{80CD5398-BB2D-4797-9F5D-F7498C006972}" }, "geometry": { "type": "Point", "coordinates": [ -95.364402771248223, 29.685913085908869 ] } },
{ "type": "Feature", "properties": { "OBJECTID": 40907, "PERMANENT_": "{FEEEFBAB-7886-408F-8D6F-BE1918499462}", "SOURCE_FEA": "10150832", "SOURCE_DAT": "23f7f824-60de-46ff-9ece-31b348ae3012", "SOURCE_D_1": "740 TNMC Update 6\/8\/2018", "SOURCE_ORI": "U.S. Geological Survey", "DATA_SECUR": 5, "DISTRIBUTI": "E4", "LOADDATE": "2018\/06\/08", "FTYPE": 740, "FCODE": 74026, "NAME": "Houston Fire Department \/ Emergency Medical Services Station 26", "ISLANDMARK": 2, "POINTLOCAT": 1, "ADMINTYPE": 6, "ADDRESSBUI": null, "ADDRESS": "7111 Dixie Drive", "CITY": "Houston", "STATE": "TX", "ZIPCODE": "77087", "GNIS_ID": "2334704", "FOOT_ID": null, "COMPLEX_ID": null, "GLOBALID": "{27DE4A37-D658-4484-8703-32323D4232D9}" }, "geometry": { "type": "Point", "coordinates": [ -95.305061340085302, 29.681787491293001 ] } },
{ "type": "Feature", "properties": { "OBJECTID": 40952, "PERMANENT_": "{D0FC554E-1C25-4296-8789-0D51CB6D95B1}", "SOURCE_FEA": "10151160", "SOURCE_DAT": "23f7f824-60de-46ff-9ece-31b348ae3012", "SOURCE_D_1": "740 TNMC Update 6\/8\/2018", "SOURCE_ORI": "U.S. Geological Survey", "DATA_SECUR": 5, "DISTRIBUTI": "E4", "LOADDATE": "2018\/06\/08", "FTYPE": 740, "FCODE": 74026, "NAME": "Houston Fire Department \/ Emergency Medical Services Station 21", "ISLANDMARK": 2, "POINTLOCAT": 1, "ADMINTYPE": 6, "ADDRESSBUI": null, "ADDRESS": "10515 South Main Street", "CITY": "Houston", "STATE": "TX", "ZIPCODE": "77025", "GNIS_ID": "2334700", "FOOT_ID": null, "COMPLEX_ID": null, "GLOBALID": "{55E7DF08-CD44-4EE9-BD2F-7B584DA50E6F}" }, "geometry": { "type": "Point", "coordinates": [ -95.432785034280101, 29.67041015627446 ] } },
{ "type": "Feature", "properties": { "OBJECTID": 40967, "PERMANENT_": "{08D1009A-A0BC-492C-B154-FAC89A73BE7B}", "SOURCE_FEA": "10150852", "SOURCE_DAT": "e30d6037-44de-44dd-8866-7aad3143ef96", "SOURCE_D_1": "740 TNMC Update 6\/18\/2018", "SOURCE_ORI": "U.S. Geological Survey", "DATA_SECUR": 5, "DISTRIBUTI": "E4", "LOADDATE": "2018\/06\/18", "FTYPE": 740, "FCODE": 74026, "NAME": "Houston Fire Department \/ Emergency Medical Services Station 76", "ISLANDMARK": 2, "POINTLOCAT": 1, "ADMINTYPE": 6, "ADDRESSBUI": null, "ADDRESS": "7200 Cook Road", "CITY": "Houston", "STATE": "TX", "ZIPCODE": "77072", "GNIS_ID": "2334752", "FOOT_ID": null, "COMPLEX_ID": null, "GLOBALID": "{AE812E1F-215D-42ED-9EEF-9656029EB896}" }, "geometry": { "type": "Point", "coordinates": [ -95.596527100203218, 29.699333191079461 ] } },
{ "type": "Feature", "properties": { "OBJECTID": 40977, "PERMANENT_": "{BD417CE9-55B6-47D1-AD40-3AE30BC4A103}", "SOURCE_FEA": "10165885", "SOURCE_DAT": "753c0c22-e20d-4216-8415-7f905f9f7d06", "SOURCE_D_1": "740 TNMC Update 6\/19\/2018", "SOURCE_ORI": "U.S. Geological Survey", "DATA_SECUR": 5, "DISTRIBUTI": "E4", "LOADDATE": "2018\/06\/19", "FTYPE": 740, "FCODE": 74026, "NAME": "West University Place Fire Department", "ISLANDMARK": 2, "POINTLOCAT": 4, "ADMINTYPE": 6, "ADDRESSBUI": null, "ADDRESS": "3800 University Boulevard", "CITY": "Houston", "STATE": "TX", "ZIPCODE": "77005", "GNIS_ID": "2334678", "FOOT_ID": null, "COMPLEX_ID": null, "GLOBALID": "{87CD2FBA-607C-4D9C-BF6B-DB75B7B160E1}" }, "geometry": { "type": "Point", "coordinates": [ -95.437759399470366, 29.715068817885658 ] } },
{ "type": "Feature", "properties": { "OBJECTID": 40978, "PERMANENT_": "97f2fa6f-8a74-402b-90e9-d20150dc2001", "SOURCE_FEA": "10422668", "SOURCE_DAT": "753c0c22-e20d-4216-8415-7f905f9f7d06", "SOURCE_D_1": "740 TNMC Update 6\/19\/2018", "SOURCE_ORI": "U.S. Geological Survey", "DATA_SECUR": 5, "DISTRIBUTI": "E4", "LOADDATE": "2018\/06\/19", "FTYPE": 740, "FCODE": 74026, "NAME": "Southside Place Fire Department", "ISLANDMARK": 2, "POINTLOCAT": 1, "ADMINTYPE": 6, "ADDRESSBUI": null, "ADDRESS": "6309 Edloe Street", "CITY": "Houston", "STATE": "TX", "ZIPCODE": "77005", "GNIS_ID": "2334361", "FOOT_ID": null, "COMPLEX_ID": null, "GLOBALID": "{DA9D5630-C96C-44A3-BBF5-6907C923E10D}" }, "geometry": { "type": "Point", "coordinates": [ -95.433555602842617, 29.714498519988403 ] } },
{ "type": "Feature", "properties": { "OBJECTID": 41835, "PERMANENT_": "{88D29E02-FDC3-4155-B883-7436E72E6218}", "SOURCE_FEA": "10150835", "SOURCE_DAT": "3aeda398-5625-428e-a9c4-6be7adbb3154", "SOURCE_D_1": "740 TNMC Update 8\/31\/2018", "SOURCE_ORI": "U.S. Geological Survey", "DATA_SECUR": 5, "DISTRIBUTI": "E4", "LOADDATE": "2018\/08\/31", "FTYPE": 740, "FCODE": 74026, "NAME": "Houston Fire Department Station 28", "ISLANDMARK": 2, "POINTLOCAT": 1, "ADMINTYPE": 6, "ADDRESSBUI": null, "ADDRESS": "3000 Chimney Rock Road", "CITY": "Houston", "STATE": "TX", "ZIPCODE": "77057", "GNIS_ID": "2334706", "FOOT_ID": null, "COMPLEX_ID": null, "GLOBALID": "{75B3CA63-6940-4B1B-8A5B-B6F0E538D58B}" }, "geometry": { "type": "Point", "coordinates": [ -95.476862000182791, 29.733882999965438 ] } },
{ "type": "Feature", "properties": { "OBJECTID": 42065, "PERMANENT_": "{7FF829E1-CAD3-46F3-A017-90CE03B13AAC}", "SOURCE_FEA": "10150714", "SOURCE_DAT": "3aeda398-5625-428e-a9c4-6be7adbb3154", "SOURCE_D_1": "740 TNMC Update 8\/31\/2018", "SOURCE_ORI": "U.S. Geological Survey", "DATA_SECUR": 5, "DISTRIBUTI": "E4", "LOADDATE": "2018\/08\/31", "FTYPE": 740, "FCODE": 74026, "NAME": "Houston Fire Station Emergency Medical Services Station 37", "ISLANDMARK": 2, "POINTLOCAT": 1, "ADMINTYPE": 6, "ADDRESSBUI": null, "ADDRESS": "7026 Stella Link Road", "CITY": "Houston", "STATE": "TX", "ZIPCODE": "77025", "GNIS_ID": "2334715", "FOOT_ID": null, "COMPLEX_ID": null, "GLOBALID": "{ED56A118-569D-4AEC-97FE-6F8256443B25}" }, "geometry": { "type": "Point", "coordinates": [ -95.44061958862261, 29.701722682227491 ] } },
{ "type": "Feature", "properties": { "OBJECTID": 42078, "PERMANENT_": "{3E8D3E9A-AF48-4B39-9110-1AF74BB85A6B}", "SOURCE_FEA": "10425635", "SOURCE_DAT": "3aeda398-5625-428e-a9c4-6be7adbb3154", "SOURCE_D_1": "740 TNMC Update 8\/31\/2018", "SOURCE_ORI": "U.S. Geological Survey", "DATA_SECUR": 5, "DISTRIBUTI": "E4", "LOADDATE": "2018\/08\/31", "FTYPE": 740, "FCODE": 74026, "NAME": "Houston Fire Department Station 10", "ISLANDMARK": 2, "POINTLOCAT": 1, "ADMINTYPE": 6, "ADDRESSBUI": null, "ADDRESS": "6600 Corporate Drive", "CITY": "Houston", "STATE": "TX", "ZIPCODE": "77036", "GNIS_ID": "2334690", "FOOT_ID": null, "COMPLEX_ID": null, "GLOBALID": "{28C2C2F8-4363-4C61-88BD-CA748A706E18}" }, "geometry": { "type": "Point", "coordinates": [ -95.551895000607772, 29.706613000093078 ] } },
{ "type": "Feature", "properties": { "OBJECTID": 42547, "PERMANENT_": "338d30d5-d3c7-4c03-bbf1-74e50ba1a32a", "SOURCE_FEA": "10165371", "SOURCE_DAT": "54f03210-c21c-46dc-886c-f766088c8985", "SOURCE_D_1": "740 TNMC Update 9\/28\/2018", "SOURCE_ORI": "U.S. Geological Survey", "DATA_SECUR": 5, "DISTRIBUTI": "E4", "LOADDATE": "2018\/09\/28", "FTYPE": 740, "FCODE": 74026, "NAME": "Community Volunteer Fire Department Station 1", "ISLANDMARK": 2, "POINTLOCAT": 1, "ADMINTYPE": 6, "ADDRESSBUI": null, "ADDRESS": "16003 Bellaire Boulevard", "CITY": "Houston", "STATE": "TX", "ZIPCODE": "77083", "GNIS_ID": "2334423", "FOOT_ID": null, "COMPLEX_ID": null, "GLOBALID": "{D878B6DA-F336-4245-9FAB-EAE1D21534DE}" }, "geometry": { "type": "Point", "coordinates": [ -95.66762900018135, 29.700486999413279 ] } },
{ "type": "Feature", "properties": { "OBJECTID": 42632, "PERMANENT_": "{56D88CD2-29E5-4617-89A9-794E5D8803AC}", "SOURCE_FEA": "10150854", "SOURCE_DAT": "54f03210-c21c-46dc-886c-f766088c8985", "SOURCE_D_1": "740 TNMC Update 9\/28\/2018", "SOURCE_ORI": "U.S. Geological Survey", "DATA_SECUR": 5, "DISTRIBUTI": "E4", "LOADDATE": "2018\/09\/28", "FTYPE": 740, "FCODE": 74026, "NAME": "Houston Fire Department \/ Emergency Medical Services Station 78", "ISLANDMARK": 2, "POINTLOCAT": 1, "ADMINTYPE": 6, "ADDRESSBUI": null, "ADDRESS": "15100 Memorial Drive", "CITY": "Houston", "STATE": "TX", "ZIPCODE": "77079", "GNIS_ID": "2334754", "FOOT_ID": null, "COMPLEX_ID": null, "GLOBALID": "{31B9D3AC-E9D2-48A2-8BA5-74D872E00086}" }, "geometry": { "type": "Point", "coordinates": [ -95.619525999872593, 29.779187000682239 ] } },
{ "type": "Feature", "properties": { "OBJECTID": 42636, "PERMANENT_": "{A468B0A3-5C9F-47EC-88ED-BCE94C26F13B}", "SOURCE_FEA": null, "SOURCE_DAT": "54f03210-c21c-46dc-886c-f766088c8985", "SOURCE_D_1": "740 TNMC Update 9\/28\/2018", "SOURCE_ORI": "U.S. Geological Survey", "DATA_SECUR": 5, "DISTRIBUTI": "E4", "LOADDATE": "2018\/09\/28", "FTYPE": 740, "FCODE": 74026, "NAME": "Community Volunteer Fire Department Station 2", "ISLANDMARK": 2, "POINTLOCAT": 1, "ADMINTYPE": null, "ADDRESSBUI": null, "ADDRESS": "13802 Canyon Hill Drive", "CITY": "Houston", "STATE": "TX", "ZIPCODE": "77083", "GNIS_ID": "2655489", "FOOT_ID": null, "COMPLEX_ID": null, "GLOBALID": "{23F22080-E4E2-4328-B39C-18706110F2BE}" }, "geometry": { "type": "Point", "coordinates": [ -95.626995563325252, 29.690830224675743 ] } },
{ "type": "Feature", "properties": { "OBJECTID": 44941, "PERMANENT_": "{16C15588-6AF8-4EEF-BF7C-362EB331FA7D}", "SOURCE_FEA": "10150861", "SOURCE_DAT": "aade804d-1f7a-4e1a-a217-6d70fdf9e86f", "SOURCE_D_1": "740 TNMC Update 4\/3\/2019", "SOURCE_ORI": "U.S. Geological Survey", "DATA_SECUR": 5, "DISTRIBUTI": "E4", "LOADDATE": "2019\/04\/03", "FTYPE": 740, "FCODE": 74026, "NAME": "Houston Fire Department Station 20", "ISLANDMARK": 2, "POINTLOCAT": 1, "ADMINTYPE": 6, "ADDRESSBUI": null, "ADDRESS": "6902 Navigation Boulevard", "CITY": "Houston", "STATE": "TX", "ZIPCODE": "77011", "GNIS_ID": "2334699", "FOOT_ID": null, "COMPLEX_ID": null, "GLOBALID": "{FC9EB38A-12CD-476E-A488-0AB02614B46E}" }, "geometry": { "type": "Point", "coordinates": [ -95.300828233226468, 29.744153557505694 ] } }
]
}
