{
"type": "FeatureCollection",
"name": "Hospitals_Brays_Buffer_2miles_EPSG4326",
"crs": { "type": "name", "properties": { "name": "urn:ogc:def:crs:OGC:1.3:CRS84" } },
"features": [
{ "type": "Feature", "properties": { "FID": 583, "ID": "0006177401", "NAME": "MEMORIAL HERMANN ORTHOPEDIC AND SPINE HOSPITAL", "ADDRESS": "5410 WEST LOOP SOUTH", "CITY": "BELLAIRE", "STATE": "TX", "ZIP": "77401", "ZIP4": "NOT AVAILABLE", "TELEPHONE": "(713) 314-4444", "TYPE": "GENERAL ACUTE CARE", "STATUS": "OPEN", "POPULATION": 64, "COUNTY": "HARRIS", "COUNTYFIPS": "48201", "COUNTRY": "USA", "LATITUDE": 29.723805424000034, "LONGITUDE": -95.461219039999946, "NAICS_CODE": "622110", "NAICS_DESC": "GENERAL MEDICAL AND SURGICAL HOSPITALS", "SOURCE": "https:\/\/hhs.texas.gov\/doing-business-hhs\/provider-portals\/health-care-facilities-regulation", "SOURCEDATE": "2019\/09\/03", "VAL_METHOD": "IMAGERY", "VAL_DATE": "2014\/03\/12", "WEBSITE": "http:\/\/www.memorialhermann.org\/locations\/orthopedic-and-spine-hospital\/", "STATE_ID": "NOT AVAILABLE", "ALT_NAME": "HOUSTON ORTHOPEDIC & SPINE HOSPITAL", "ST_FIPS": "48", "OWNER": "NON-PROFIT", "TTL_STAFF": -999, "BEDS": 64.0, "TRAUMA": "NOT AVAILABLE", "HELIPAD": "N" }, "geometry": { "type": "Point", "coordinates": [ -95.461219039659056, 29.72380542394632 ] } },
{ "type": "Feature", "properties": { "FID": 606, "ID": "0026377030", "NAME": "CHI ST LUKES HEALTH BAYLOR COLLEGE OF MEDICINE MEDICAL CENTER", "ADDRESS": "6720 BERTNER STREET", "CITY": "GRANBURY", "STATE": "TX", "ZIP": "77030", "ZIP4": "NOT AVAILABLE", "TELEPHONE": "(713) 785-8537", "TYPE": "GENERAL ACUTE CARE", "STATUS": "OPEN", "POPULATION": 864, "COUNTY": "HARRIS", "COUNTYFIPS": "48201", "COUNTRY": "USA", "LATITUDE": 29.707731164000052, "LONGITUDE": -95.400444971999946, "NAICS_CODE": "622110", "NAICS_DESC": "GENERAL MEDICAL AND SURGICAL HOSPITALS", "SOURCE": "https:\/\/hhs.texas.gov\/doing-business-hhs\/provider-portals\/health-care-facilities-regulation", "SOURCEDATE": "2019\/09\/03", "VAL_METHOD": "IMAGERY", "VAL_DATE": "2014\/02\/10", "WEBSITE": "http:\/\/www.chistlukeshealth.org\/baylorstlukes", "STATE_ID": "NOT AVAILABLE", "ALT_NAME": "ST. LUKE'S EPISCOPAL HOSPITAL", "ST_FIPS": "48", "OWNER": "NON-PROFIT", "TTL_STAFF": -999, "BEDS": 864.0, "TRAUMA": "NOT AVAILABLE", "HELIPAD": "Y" }, "geometry": { "type": "Point", "coordinates": [ -95.400444971687776, 29.707731164364407 ] } },
{ "type": "Feature", "properties": { "FID": 659, "ID": "0137877030", "NAME": "HOUSTON METHODIST HOSPTIAL", "ADDRESS": "6565 FANNIN STREET", "CITY": "HOUSTON", "STATE": "TX", "ZIP": "77030", "ZIP4": "2707", "TELEPHONE": "(713) 790-3311", "TYPE": "GENERAL ACUTE CARE", "STATUS": "OPEN", "POPULATION": 1128, "COUNTY": "HARRIS", "COUNTYFIPS": "48201", "COUNTRY": "USA", "LATITUDE": 29.710523141000067, "LONGITUDE": -95.398938881999982, "NAICS_CODE": "622110", "NAICS_DESC": "GENERAL MEDICAL AND SURGICAL HOSPITALS", "SOURCE": "https:\/\/hhs.texas.gov\/doing-business-hhs\/provider-portals\/health-care-facilities-regulation", "SOURCEDATE": "2019\/09\/03", "VAL_METHOD": "IMAGERY\/OTHER", "VAL_DATE": "2014\/12\/22", "WEBSITE": "http:\/\/www.houstonmethodist.org\/", "STATE_ID": "NOT AVAILABLE", "ALT_NAME": "NOT AVAILABLE", "ST_FIPS": "48", "OWNER": "NON-PROFIT", "TTL_STAFF": -999, "BEDS": 1128.0, "TRAUMA": "NOT AVAILABLE", "HELIPAD": "Y" }, "geometry": { "type": "Point", "coordinates": [ -95.398938882333553, 29.71052314064363 ] } },
{ "type": "Feature", "properties": { "FID": 689, "ID": "0076677004", "NAME": "HARRIS HEALTH SYSTEM QUENTIN MEASE HOSPITAL", "ADDRESS": "3601 NORTH MACGREGOR WAY", "CITY": "HOUSTON", "STATE": "TX", "ZIP": "77004", "ZIP4": "NOT AVAILABLE", "TELEPHONE": "(713) 566-6874", "TYPE": "GENERAL ACUTE CARE", "STATUS": "OPEN", "POPULATION": 49, "COUNTY": "HARRIS", "COUNTYFIPS": "48021", "COUNTRY": "USA", "LATITUDE": 29.711039079000045, "LONGITUDE": -95.359806415999969, "NAICS_CODE": "622110", "NAICS_DESC": "GENERAL MEDICAL AND SURGICAL HOSPITALS", "SOURCE": "https:\/\/hhs.texas.gov\/doing-business-hhs\/provider-portals\/health-care-facilities-regulation", "SOURCEDATE": "2019\/09\/03", "VAL_METHOD": "IMAGERY\/OTHER", "VAL_DATE": "2017\/01\/09", "WEBSITE": "https:\/\/www.harrishealth.org\/en\/services\/locations\/pages\/quentin-mease-medical-specialties.aspx", "STATE_ID": "NOT AVAILABLE", "ALT_NAME": "NOT AVAILABLE", "ST_FIPS": "48", "OWNER": "NON-PROFIT", "TTL_STAFF": -999, "BEDS": 49.0, "TRAUMA": "NOT AVAILABLE", "HELIPAD": "N" }, "geometry": { "type": "Point", "coordinates": [ -95.359806416231194, 29.711039079079221 ] } },
{ "type": "Feature", "properties": { "FID": 712, "ID": "0028677004", "NAME": "HCA HOUSTON HEATHCARE SPECIALTY HOSPITAL", "ADDRESS": "1300 BINZ STREET", "CITY": "HOUSTON", "STATE": "TX", "ZIP": "77004", "ZIP4": "NOT AVAILABLE", "TELEPHONE": "(713) 285-1000", "TYPE": "LONG TERM CARE", "STATUS": "OPEN", "POPULATION": 65, "COUNTY": "HARRIS", "COUNTYFIPS": "48201", "COUNTRY": "USA", "LATITUDE": 29.723239233000072, "LONGITUDE": -95.387022693999938, "NAICS_CODE": "622310", "NAICS_DESC": "SPECIALTY (EXCEPT PSYCHIATRIC AND SUBSTANCE ABUSE) HOSPITALS", "SOURCE": "https:\/\/hhs.texas.gov\/doing-business-hhs\/provider-portals\/health-care-facilities-regulation", "SOURCEDATE": "2019\/09\/03", "VAL_METHOD": "IMAGERY\/OTHER", "VAL_DATE": "2014\/02\/10", "WEBSITE": "http:\/\/www.plazaspecialtyhospital.com", "STATE_ID": "NOT AVAILABLE", "ALT_NAME": "NOT AVAILABLE", "ST_FIPS": "48", "OWNER": "PROPRIETARY", "TTL_STAFF": -999, "BEDS": 65.0, "TRAUMA": "NOT AVAILABLE", "HELIPAD": "N" }, "geometry": { "type": "Point", "coordinates": [ -95.38702269415711, 29.723239233113908 ] } },
{ "type": "Feature", "properties": { "FID": 718, "ID": "0050077477", "NAME": "ATRIUM MEDICAL CENTER", "ADDRESS": "11929 WEST AIRPORT BOULEVARD", "CITY": "STAFFORD", "STATE": "TX", "ZIP": "77477", "ZIP4": "NOT AVAILABLE", "TELEPHONE": "(281) 207-8200", "TYPE": "LONG TERM CARE", "STATUS": "OPEN", "POPULATION": 68, "COUNTY": "FORT BEND", "COUNTYFIPS": "48157", "COUNTRY": "USA", "LATITUDE": 29.646847509000054, "LONGITUDE": -95.588277012999981, "NAICS_CODE": "622310", "NAICS_DESC": "SPECIALTY (EXCEPT PSYCHIATRIC AND SUBSTANCE ABUSE) HOSPITALS", "SOURCE": "https:\/\/hhs.texas.gov\/doing-business-hhs\/provider-portals\/health-care-facilities-regulation", "SOURCEDATE": "2019\/09\/03", "VAL_METHOD": "IMAGERY\/OTHER", "VAL_DATE": "2014\/02\/10", "WEBSITE": "http:\/\/www.atriummedicalcenter.com", "STATE_ID": "NOT AVAILABLE", "ALT_NAME": "NOT AVAILABLE", "ST_FIPS": "48", "OWNER": "PROPRIETARY", "TTL_STAFF": -999, "BEDS": 68.0, "TRAUMA": "NOT AVAILABLE", "HELIPAD": "N" }, "geometry": { "type": "Point", "coordinates": [ -95.588277013058047, 29.646847509295092 ] } },
{ "type": "Feature", "properties": { "FID": 757, "ID": "0025977030", "NAME": "UNIVERSITY OF TEXAS M.D. ANDERSON CANCER CENTER", "ADDRESS": "1515 HOLCOMBE BOULEVARD, BOX 43", "CITY": "HOUSTON", "STATE": "TX", "ZIP": "77030", "ZIP4": "NOT AVAILABLE", "TELEPHONE": "NOT AVAILABLE", "TYPE": "SPECIAL", "STATUS": "OPEN", "POPULATION": 631, "COUNTY": "HARRIS", "COUNTYFIPS": "48201", "COUNTRY": "USA", "LATITUDE": 29.707031355000026, "LONGITUDE": -95.397077170999978, "NAICS_CODE": "622310", "NAICS_DESC": "SPECIALTY (EXCEPT PSYCHIATRIC AND SUBSTANCE ABUSE) HOSPITALS", "SOURCE": "https:\/\/hhs.texas.gov\/doing-business-hhs\/provider-portals\/health-care-facilities-regulation", "SOURCEDATE": "2019\/09\/03", "VAL_METHOD": "IMAGERY\/OTHER", "VAL_DATE": "2014\/02\/03", "WEBSITE": "http:\/\/www.mdanderson.org\/", "STATE_ID": "NOT AVAILABLE", "ALT_NAME": "NOT AVAILABLE", "ST_FIPS": "48", "OWNER": "GOVERNMENT - DISTRICT\/AUTHORITY", "TTL_STAFF": -999, "BEDS": 631.0, "TRAUMA": "NOT AVAILABLE", "HELIPAD": "Y" }, "geometry": { "type": "Point", "coordinates": [ -95.397077170619625, 29.707031354811384 ] } },
{ "type": "Feature", "properties": { "FID": 1353, "ID": "0025577030", "NAME": "MEMORIAL HERMANN TEXAS MEDICAL CENTER", "ADDRESS": "6411 FANNIN STREET", "CITY": "HOUSTON", "STATE": "TX", "ZIP": "77030", "ZIP4": "NOT AVAILABLE", "TELEPHONE": "(713) 704-4000", "TYPE": "GENERAL ACUTE CARE", "STATUS": "OPEN", "POPULATION": 1082, "COUNTY": "HARRIS", "COUNTYFIPS": "48201", "COUNTRY": "USA", "LATITUDE": 29.714551173000075, "LONGITUDE": -95.396282025999938, "NAICS_CODE": "622110", "NAICS_DESC": "GENERAL MEDICAL AND SURGICAL HOSPITALS", "SOURCE": "https:\/\/hhs.texas.gov\/doing-business-hhs\/provider-portals\/health-care-facilities-regulation", "SOURCEDATE": "2019\/09\/03", "VAL_METHOD": "IMAGERY", "VAL_DATE": "2014\/03\/12", "WEBSITE": "http:\/\/www.mhhs.org", "STATE_ID": "NOT AVAILABLE", "ALT_NAME": "NOT AVAILABLE", "ST_FIPS": "48", "OWNER": "NON-PROFIT", "TTL_STAFF": -999, "BEDS": 1082.0, "TRAUMA": "LEVEL I", "HELIPAD": "Y" }, "geometry": { "type": "Point", "coordinates": [ -95.396282025947556, 29.714551172813366 ] } },
{ "type": "Feature", "properties": { "FID": 1404, "ID": "0025877030", "NAME": "TEXAS CHILDREN'S HOSPITAL", "ADDRESS": "6621 FANNIN STREET", "CITY": "HOUSTON", "STATE": "TX", "ZIP": "77030", "ZIP4": "NOT AVAILABLE", "TELEPHONE": "(832) 824-1000", "TYPE": "GENERAL ACUTE CARE", "STATUS": "OPEN", "POPULATION": 621, "COUNTY": "HARRIS", "COUNTYFIPS": "48201", "COUNTRY": "USA", "LATITUDE": 29.707778479000069, "LONGITUDE": -95.40165263199998, "NAICS_CODE": "622110", "NAICS_DESC": "GENERAL MEDICAL AND SURGICAL HOSPITALS", "SOURCE": "https:\/\/hhs.texas.gov\/doing-business-hhs\/provider-portals\/health-care-facilities-regulation", "SOURCEDATE": "2019\/09\/03", "VAL_METHOD": "IMAGERY\/OTHER", "VAL_DATE": "2014\/02\/10", "WEBSITE": "http:\/\/www.texaschildrenshospital.org", "STATE_ID": "NOT AVAILABLE", "ALT_NAME": "NOT AVAILABLE", "ST_FIPS": "48", "OWNER": "NON-PROFIT", "TTL_STAFF": -999, "BEDS": 621.0, "TRAUMA": "LEVEL I", "HELIPAD": "Y" }, "geometry": { "type": "Point", "coordinates": [ -95.401652631721447, 29.707778479184363 ] } },
{ "type": "Feature", "properties": { "FID": 1405, "ID": "0026777030", "NAME": "HARRIS HEALTH SYSTEM BEN TAUB GENERAL HOSPITAL", "ADDRESS": "1504 TAUB LOOP", "CITY": "HOUSTON", "STATE": "TX", "ZIP": "77030", "ZIP4": "NOT AVAILABLE", "TELEPHONE": "(713) 566-6874", "TYPE": "GENERAL ACUTE CARE", "STATUS": "OPEN", "POPULATION": 458, "COUNTY": "HARRIS", "COUNTYFIPS": "48201", "COUNTRY": "USA", "LATITUDE": 29.710982363000028, "LONGITUDE": -95.3945517, "NAICS_CODE": "622110", "NAICS_DESC": "GENERAL MEDICAL AND SURGICAL HOSPITALS", "SOURCE": "https:\/\/hhs.texas.gov\/doing-business-hhs\/provider-portals\/health-care-facilities-regulation", "SOURCEDATE": "2019\/09\/03", "VAL_METHOD": "IMAGERY", "VAL_DATE": "2014\/03\/12", "WEBSITE": "https:\/\/www.harrishealth.org\/en\/services\/locations\/pages\/ben-taub.aspx", "STATE_ID": "NOT AVAILABLE", "ALT_NAME": "NOT AVAILABLE", "ST_FIPS": "48", "OWNER": "GOVERNMENT - DISTRICT\/AUTHORITY", "TTL_STAFF": -999, "BEDS": 458.0, "TRAUMA": "LEVEL I", "HELIPAD": "Y" }, "geometry": { "type": "Point", "coordinates": [ -95.394551700030462, 29.710982363369226 ] } },
{ "type": "Feature", "properties": { "FID": 1406, "ID": "0027077054", "NAME": "THE WOMAN'S HOSPITAL OF TEXAS", "ADDRESS": "7600 FANNIN STREET", "CITY": "HOUSTON", "STATE": "TX", "ZIP": "77054", "ZIP4": "NOT AVAILABLE", "TELEPHONE": "(713) 790-1234", "TYPE": "GENERAL ACUTE CARE", "STATUS": "OPEN", "POPULATION": 397, "COUNTY": "HARRIS", "COUNTYFIPS": "48201", "COUNTRY": "USA", "LATITUDE": 29.692950217000032, "LONGITUDE": -95.402404230999991, "NAICS_CODE": "622110", "NAICS_DESC": "GENERAL MEDICAL AND SURGICAL HOSPITALS", "SOURCE": "https:\/\/hhs.texas.gov\/doing-business-hhs\/provider-portals\/health-care-facilities-regulation", "SOURCEDATE": "2019\/09\/03", "VAL_METHOD": "IMAGERY", "VAL_DATE": "2014\/02\/10", "WEBSITE": "http:\/\/womanshospital.com\/", "STATE_ID": "NOT AVAILABLE", "ALT_NAME": "NOT AVAILABLE", "ST_FIPS": "48", "OWNER": "PROPRIETARY", "TTL_STAFF": -999, "BEDS": 397.0, "TRAUMA": "LEVEL IV", "HELIPAD": "Y" }, "geometry": { "type": "Point", "coordinates": [ -95.402404230560109, 29.692950216743832 ] } },
{ "type": "Feature", "properties": { "FID": 1505, "ID": "0027177074", "NAME": "MEMORIAL HERMANN SOUTHWEST HOSPITAL", "ADDRESS": "7600 BEECHNUT STREET", "CITY": "HOUSTON", "STATE": "TX", "ZIP": "77074", "ZIP4": "NOT AVAILABLE", "TELEPHONE": "(713) 456-5000", "TYPE": "GENERAL ACUTE CARE", "STATUS": "OPEN", "POPULATION": 547, "COUNTY": "HARRIS", "COUNTYFIPS": "48201", "COUNTRY": "USA", "LATITUDE": 29.69271806900008, "LONGITUDE": -95.521153107999965, "NAICS_CODE": "622110", "NAICS_DESC": "GENERAL MEDICAL AND SURGICAL HOSPITALS", "SOURCE": "https:\/\/hhs.texas.gov\/doing-business-hhs\/provider-portals\/health-care-facilities-regulation", "SOURCEDATE": "2019\/09\/03", "VAL_METHOD": "IMAGERY", "VAL_DATE": "2014\/02\/10", "WEBSITE": "http:\/\/www.memorialhermann.org\/locations\/southwest\/", "STATE_ID": "NOT AVAILABLE", "ALT_NAME": "NOT AVAILABLE", "ST_FIPS": "48", "OWNER": "NON-PROFIT", "TTL_STAFF": -999, "BEDS": 547.0, "TRAUMA": "LEVEL III", "HELIPAD": "Y" }, "geometry": { "type": "Point", "coordinates": [ -95.521153108279535, 29.692718068822337 ] } },
{ "type": "Feature", "properties": { "FID": 1524, "ID": "0027877030", "NAME": "KINDRED HOSPITAL HOUSTON MEDICAL CENTER", "ADDRESS": "6441 MAIN STREET", "CITY": "HOUSTON", "STATE": "TX", "ZIP": "77030", "ZIP4": "NOT AVAILABLE", "TELEPHONE": "(713) 790-0500", "TYPE": "LONG TERM CARE", "STATUS": "OPEN", "POPULATION": 116, "COUNTY": "HARRIS", "COUNTYFIPS": "48201", "COUNTRY": "USA", "LATITUDE": 29.712850428000024, "LONGITUDE": -95.399170224999978, "NAICS_CODE": "622310", "NAICS_DESC": "SPECIALTY (EXCEPT PSYCHIATRIC AND SUBSTANCE ABUSE) HOSPITALS", "SOURCE": "https:\/\/hhs.texas.gov\/doing-business-hhs\/provider-portals\/health-care-facilities-regulation", "SOURCEDATE": "2019\/09\/03", "VAL_METHOD": "IMAGERY", "VAL_DATE": "2014\/03\/12", "WEBSITE": "http:\/\/www.khhouston.com\/", "STATE_ID": "NOT AVAILABLE", "ALT_NAME": "NOT AVAILABLE", "ST_FIPS": "48", "OWNER": "PROPRIETARY", "TTL_STAFF": -999, "BEDS": 116.0, "TRAUMA": "NOT AVAILABLE", "HELIPAD": "Y" }, "geometry": { "type": "Point", "coordinates": [ -95.399170224570369, 29.712850428214299 ] } },
{ "type": "Feature", "properties": { "FID": 1563, "ID": "0142477004", "NAME": "HERMANN DRIVE SURGICAL HOSPITAL LP", "ADDRESS": "2001 HERMANN DRIVE", "CITY": "HOUSTON", "STATE": "TX", "ZIP": "77004", "ZIP4": "NOT AVAILABLE", "TELEPHONE": "(713) 285-5500", "TYPE": "GENERAL ACUTE CARE", "STATUS": "OPEN", "POPULATION": 25, "COUNTY": "HARRIS", "COUNTYFIPS": "48201", "COUNTRY": "USA", "LATITUDE": 29.718575955000063, "LONGITUDE": -95.38301934499998, "NAICS_CODE": "622110", "NAICS_DESC": "GENERAL MEDICAL AND SURGICAL HOSPITALS", "SOURCE": "https:\/\/hhs.texas.gov\/doing-business-hhs\/provider-portals\/health-care-facilities-regulation", "SOURCEDATE": "2019\/09\/03", "VAL_METHOD": "IMAGERY\/OTHER", "VAL_DATE": "2014\/12\/09", "WEBSITE": "http:\/\/hermanndrivesurgicalhospital.com\/", "STATE_ID": "NOT AVAILABLE", "ALT_NAME": "VICTORY MEDICAL CENTER HOUSTON", "ST_FIPS": "48", "OWNER": "PROPRIETARY", "TTL_STAFF": -999, "BEDS": 25.0, "TRAUMA": "NOT AVAILABLE", "HELIPAD": "N" }, "geometry": { "type": "Point", "coordinates": [ -95.383019344906913, 29.718575954715099 ] } },
{ "type": "Feature", "properties": { "FID": 1564, "ID": "0076377081", "NAME": "CORNERSTONE HOSPITAL HOUSTON - BELLAIRE", "ADDRESS": "5314 DASHWOOD", "CITY": "HOUSTON", "STATE": "TX", "ZIP": "77081", "ZIP4": "NOT AVAILABLE", "TELEPHONE": "(713) 295-5300", "TYPE": "LONG TERM CARE", "STATUS": "OPEN", "POPULATION": 74, "COUNTY": "HARRIS", "COUNTYFIPS": "48021", "COUNTRY": "USA", "LATITUDE": 29.707960798000045, "LONGITUDE": -95.473915826999985, "NAICS_CODE": "622310", "NAICS_DESC": "SPECIALTY (EXCEPT PSYCHIATRIC AND SUBSTANCE ABUSE) HOSPITALS", "SOURCE": "https:\/\/hhs.texas.gov\/doing-business-hhs\/provider-portals\/health-care-facilities-regulation", "SOURCEDATE": "2019\/09\/03", "VAL_METHOD": "IMAGERY", "VAL_DATE": "2017\/01\/09", "WEBSITE": "http:\/\/www.chghospitals.com\/houston-bellaire\/", "STATE_ID": "NOT AVAILABLE", "ALT_NAME": "NOT AVAILABLE", "ST_FIPS": "48", "OWNER": "PROPRIETARY", "TTL_STAFF": -999, "BEDS": 74.0, "TRAUMA": "NOT AVAILABLE", "HELIPAD": "N" }, "geometry": { "type": "Point", "coordinates": [ -95.473915826986499, 29.707960797979055 ] } },
{ "type": "Feature", "properties": { "FID": 1596, "ID": "0143577035", "NAME": "HOPEBRIDGE HOSPITAL", "ADDRESS": "5556 GASMER", "CITY": "HOUSTON", "STATE": "TX", "ZIP": "77035", "ZIP4": "NOT AVAILABLE", "TELEPHONE": "(713) 422-2600", "TYPE": "PSYCHIATRIC", "STATUS": "CLOSED", "POPULATION": 135, "COUNTY": "HARRIS", "COUNTYFIPS": "48201", "COUNTRY": "USA", "LATITUDE": 29.651736354000036, "LONGITUDE": -95.477738202999944, "NAICS_CODE": "622210", "NAICS_DESC": "HOSPITALS, PSYCHIATRIC (EXCEPT CONVALESCENT)", "SOURCE": "http:\/\/www.dshs.texas.gov\/facilities\/find-a-licensee.aspx", "SOURCEDATE": "2017\/01\/09", "VAL_METHOD": "IMAGERY\/OTHER", "VAL_DATE": "2020\/05\/08", "WEBSITE": "http:\/\/www.hopebridgehealth.com\/", "STATE_ID": "NOT AVAILABLE", "ALT_NAME": "WESTBURY COMMUNITY HOSPITAL", "ST_FIPS": "48", "OWNER": "PROPRIETARY", "TTL_STAFF": -999, "BEDS": 135.0, "TRAUMA": "NOT AVAILABLE", "HELIPAD": "N" }, "geometry": { "type": "Point", "coordinates": [ -95.477738203436175, 29.651736353780656 ] } },
{ "type": "Feature", "properties": { "FID": 1612, "ID": "0026577030", "NAME": "TIRR MEMORIAL HERMANN", "ADDRESS": "1333 MOURSUND STREET", "CITY": "HOUSTON", "STATE": "TX", "ZIP": "77030", "ZIP4": "NOT AVAILABLE", "TELEPHONE": "(713) 799-5000", "TYPE": "REHABILITATION", "STATUS": "OPEN", "POPULATION": 134, "COUNTY": "HARRIS", "COUNTYFIPS": "48201", "COUNTRY": "USA", "LATITUDE": 29.709336799000027, "LONGITUDE": -95.394038964999936, "NAICS_CODE": "622310", "NAICS_DESC": "REHABILITATION HOSPITALS (EXCEPT ALCOHOLISM, DRUG ADDICTION)", "SOURCE": "https:\/\/hhs.texas.gov\/doing-business-hhs\/provider-portals\/health-care-facilities-regulation", "SOURCEDATE": "2019\/09\/03", "VAL_METHOD": "IMAGERY\/OTHER", "VAL_DATE": "2014\/02\/10", "WEBSITE": "http:\/\/www.memorialhermann.org\/locations\/tirr.html", "STATE_ID": "NOT AVAILABLE", "ALT_NAME": "NOT AVAILABLE", "ST_FIPS": "48", "OWNER": "NON-PROFIT", "TTL_STAFF": -999, "BEDS": 134.0, "TRAUMA": "NOT AVAILABLE", "HELIPAD": "N" }, "geometry": { "type": "Point", "coordinates": [ -95.394038965022474, 29.709336798786083 ] } },
{ "type": "Feature", "properties": { "FID": 1627, "ID": "0029777030", "NAME": "TEXAS ORTHOPEDIC HOSPITAL", "ADDRESS": "7401 SOUTH MAIN STREET", "CITY": "HOUSTON", "STATE": "TX", "ZIP": "77030", "ZIP4": "NOT AVAILABLE", "TELEPHONE": "(713) 794-3498", "TYPE": "SPECIAL", "STATUS": "OPEN", "POPULATION": 49, "COUNTY": "HARRIS", "COUNTYFIPS": "48201", "COUNTRY": "USA", "LATITUDE": 29.700211937000063, "LONGITUDE": -95.409068594999951, "NAICS_CODE": "622310", "NAICS_DESC": "SPECIALTY (EXCEPT PSYCHIATRIC AND SUBSTANCE ABUSE) HOSPITALS", "SOURCE": "https:\/\/hhs.texas.gov\/doing-business-hhs\/provider-portals\/health-care-facilities-regulation", "SOURCEDATE": "2019\/09\/03", "VAL_METHOD": "IMAGERY\/OTHER", "VAL_DATE": "2014\/02\/03", "WEBSITE": "http:\/\/www.texasorthopedic.com", "STATE_ID": "NOT AVAILABLE", "ALT_NAME": "NOT AVAILABLE", "ST_FIPS": "48", "OWNER": "PROPRIETARY", "TTL_STAFF": -999, "BEDS": 49.0, "TRAUMA": "NOT AVAILABLE", "HELIPAD": "N" }, "geometry": { "type": "Point", "coordinates": [ -95.409068595396064, 29.700211936627404 ] } },
{ "type": "Feature", "properties": { "FID": 2153, "ID": "0028777082", "NAME": "HEALTHBRIDGE CHILDREN'S HOSPITAL - HOUSTON", "ADDRESS": "2929 WOODLAND PARK DRIVE", "CITY": "HOUSTON", "STATE": "TX", "ZIP": "77082", "ZIP4": "NOT AVAILABLE", "TELEPHONE": "(281) 293-7774", "TYPE": "CHILDREN", "STATUS": "OPEN", "POPULATION": 40, "COUNTY": "HARRIS", "COUNTYFIPS": "48201", "COUNTRY": "USA", "LATITUDE": 29.732450146000076, "LONGITUDE": -95.579984721999949, "NAICS_CODE": "622110", "NAICS_DESC": "CHILDREN'S HOSPITALS, GENERAL", "SOURCE": "https:\/\/hhs.texas.gov\/doing-business-hhs\/provider-portals\/health-care-facilities-regulation", "SOURCEDATE": "2019\/09\/03", "VAL_METHOD": "IMAGERY", "VAL_DATE": "2014\/02\/03", "WEBSITE": "http:\/\/www.healthbridgehouston.com\/", "STATE_ID": "NOT AVAILABLE", "ALT_NAME": "NOT AVAILABLE", "ST_FIPS": "48", "OWNER": "PROPRIETARY", "TTL_STAFF": -999, "BEDS": 40.0, "TRAUMA": "NOT AVAILABLE", "HELIPAD": "N" }, "geometry": { "type": "Point", "coordinates": [ -95.579984722162521, 29.732450146094912 ] } },
{ "type": "Feature", "properties": { "FID": 3543, "ID": "0029277081", "NAME": "BEHAVIORAL HOSPITAL OF BELLAIRE", "ADDRESS": "5314 DASHWOOD, SUITE 200 & 300", "CITY": "HOUSTON", "STATE": "TX", "ZIP": "77081", "ZIP4": "NOT AVAILABLE", "TELEPHONE": "(713) 600-9500", "TYPE": "PSYCHIATRIC", "STATUS": "OPEN", "POPULATION": 124, "COUNTY": "HARRIS", "COUNTYFIPS": "48201", "COUNTRY": "USA", "LATITUDE": 29.707982213000037, "LONGITUDE": -95.473416139999983, "NAICS_CODE": "622210", "NAICS_DESC": "PSYCHIATRIC AND SUBSTANCE ABUSE HOSPITALS", "SOURCE": "https:\/\/hhs.texas.gov\/doing-business-hhs\/provider-portals\/health-care-facilities-regulation", "SOURCEDATE": "2019\/09\/03", "VAL_METHOD": "IMAGERY", "VAL_DATE": "2014\/02\/03", "WEBSITE": "http:\/\/www.bhbhospital.com", "STATE_ID": "NOT AVAILABLE", "ALT_NAME": "NOT AVAILABLE", "ST_FIPS": "48", "OWNER": "PROPRIETARY", "TTL_STAFF": -999, "BEDS": 124.0, "TRAUMA": "NOT AVAILABLE", "HELIPAD": "N" }, "geometry": { "type": "Point", "coordinates": [ -95.473416140008027, 29.707982213309638 ] } },
{ "type": "Feature", "properties": { "FID": 3567, "ID": "0135377004", "NAME": "CORNERSTONE SPECIALITY HOSPITAL - MEDICAL CENTER", "ADDRESS": "2001 HERMANN DRIVE, SUITE 100", "CITY": "HOUSTON", "STATE": "TX", "ZIP": "77004", "ZIP4": "NOT AVAILABLE", "TELEPHONE": "(832) 649-6200", "TYPE": "LONG TERM CARE", "STATUS": "OPEN", "POPULATION": 35, "COUNTY": "HARRIS", "COUNTYFIPS": "48201", "COUNTRY": "USA", "LATITUDE": 29.718489902000044, "LONGITUDE": -95.382775527999968, "NAICS_CODE": "622310", "NAICS_DESC": "SPECIALTY (EXCEPT PSYCHIATRIC AND SUBSTANCE ABUSE) HOSPITALS", "SOURCE": "https:\/\/hhs.texas.gov\/doing-business-hhs\/provider-portals\/health-care-facilities-regulation", "SOURCEDATE": "2019\/09\/03", "VAL_METHOD": "IMAGERY\/OTHER", "VAL_DATE": "2014\/12\/09", "WEBSITE": "http:\/\/www.chghospitals.com\/medcenter\/", "STATE_ID": "NOT AVAILABLE", "ALT_NAME": "NOT AVAILABLE", "ST_FIPS": "48", "OWNER": "PROPRIETARY", "TTL_STAFF": -999, "BEDS": 35.0, "TRAUMA": "NOT AVAILABLE", "HELIPAD": "N" }, "geometry": { "type": "Point", "coordinates": [ -95.382775527765745, 29.71848990218113 ] } },
{ "type": "Feature", "properties": { "FID": 3618, "ID": "0029477057", "NAME": "WESTBURY COMMUNITY HOSPITAL", "ADDRESS": "6060 RICHMOND AVE, UNIT 380", "CITY": "HOUSTON", "STATE": "TX", "ZIP": "77057", "ZIP4": "NOT AVAILABLE", "TELEPHONE": "(713) 422-2609", "TYPE": "PSYCHIATRIC", "STATUS": "CLOSED", "POPULATION": 137, "COUNTY": "HARRIS", "COUNTYFIPS": "48201", "COUNTRY": "USA", "LATITUDE": 29.732219015000055, "LONGITUDE": -95.486830635999979, "NAICS_CODE": "622210", "NAICS_DESC": "HOSPITALS, PSYCHIATRIC (EXCEPT CONVALESCENT)", "SOURCE": "http:\/\/www.dshs.state.tx.us\/chs\/hosp\/hosp2.shtm", "SOURCEDATE": "2014\/09\/23", "VAL_METHOD": "IMAGERY\/OTHER", "VAL_DATE": "2020\/05\/08", "WEBSITE": "NOT AVAILABLE", "STATE_ID": "NOT AVAILABLE", "ALT_NAME": "NOT AVAILABLE", "ST_FIPS": "48", "OWNER": "PROPRIETARY", "TTL_STAFF": -999, "BEDS": 137.0, "TRAUMA": "NOT AVAILABLE", "HELIPAD": "N" }, "geometry": { "type": "Point", "coordinates": [ -95.486830636331703, 29.732219014634207 ] } },
{ "type": "Feature", "properties": { "FID": 3760, "ID": "0026177082", "NAME": "HCA HOUSTON HEALTHCARE WEST", "ADDRESS": "12141 RICHMOND AVENUE", "CITY": "HOUSTON", "STATE": "TX", "ZIP": "77082", "ZIP4": "NOT AVAILABLE", "TELEPHONE": "(281) 558-3444", "TYPE": "GENERAL ACUTE CARE", "STATUS": "OPEN", "POPULATION": 302, "COUNTY": "HARRIS", "COUNTYFIPS": "48201", "COUNTRY": "USA", "LATITUDE": 29.729341657000077, "LONGITUDE": -95.59448361799997, "NAICS_CODE": "622110", "NAICS_DESC": "GENERAL MEDICAL AND SURGICAL HOSPITALS", "SOURCE": "https:\/\/hhs.texas.gov\/doing-business-hhs\/provider-portals\/health-care-facilities-regulation", "SOURCEDATE": "2019\/09\/03", "VAL_METHOD": "IMAGERY", "VAL_DATE": "2014\/02\/10", "WEBSITE": "http:\/\/www.westhoustonmedical.com", "STATE_ID": "NOT AVAILABLE", "ALT_NAME": "NOT AVAILABLE", "ST_FIPS": "48", "OWNER": "PROPRIETARY", "TTL_STAFF": -999, "BEDS": 302.0, "TRAUMA": "NOT AVAILABLE", "HELIPAD": "Y" }, "geometry": { "type": "Point", "coordinates": [ -95.594483617984793, 29.729341657092196 ] } },
{ "type": "Feature", "properties": { "FID": 3761, "ID": "0026477030", "NAME": "SHRINERS HOSPITALS FOR CHILDREN", "ADDRESS": "6977 MAIN STREET", "CITY": "HOUSTON", "STATE": "TX", "ZIP": "77030", "ZIP4": "NOT AVAILABLE", "TELEPHONE": "(713) 797-1616", "TYPE": "GENERAL ACUTE CARE", "STATUS": "OPEN", "POPULATION": 40, "COUNTY": "HARRIS", "COUNTYFIPS": "48201", "COUNTRY": "USA", "LATITUDE": 29.704310666000026, "LONGITUDE": -95.40577144699995, "NAICS_CODE": "622110", "NAICS_DESC": "GENERAL MEDICAL AND SURGICAL HOSPITALS", "SOURCE": "https:\/\/hhs.texas.gov\/doing-business-hhs\/provider-portals\/health-care-facilities-regulation", "SOURCEDATE": "2019\/09\/03", "VAL_METHOD": "IMAGERY\/OTHER", "VAL_DATE": "2014\/02\/10", "WEBSITE": "http:\/\/www.shrinershospitalsforchildren.org\/locations\/houston", "STATE_ID": "NOT AVAILABLE", "ALT_NAME": "NOT AVAILABLE", "ST_FIPS": "48", "OWNER": "NON-PROFIT", "TTL_STAFF": -999, "BEDS": 40.0, "TRAUMA": "NOT AVAILABLE", "HELIPAD": "N" }, "geometry": { "type": "Point", "coordinates": [ -95.405771446825014, 29.704310666169231 ] } },
{ "type": "Feature", "properties": { "FID": 3763, "ID": "0026977004", "NAME": "HCA HOUSTON HEALTHCARE MEDICAL CENTER", "ADDRESS": "1313 HERMANN DRIVE", "CITY": "HOUSTON", "STATE": "TX", "ZIP": "77004", "ZIP4": "NOT AVAILABLE", "TELEPHONE": "(713) 527-5000", "TYPE": "GENERAL ACUTE CARE", "STATUS": "OPEN", "POPULATION": 444, "COUNTY": "HARRIS", "COUNTYFIPS": "48201", "COUNTRY": "USA", "LATITUDE": 29.722555670000077, "LONGITUDE": -95.387531895999984, "NAICS_CODE": "622110", "NAICS_DESC": "GENERAL MEDICAL AND SURGICAL HOSPITALS", "SOURCE": "https:\/\/hhs.texas.gov\/doing-business-hhs\/provider-portals\/health-care-facilities-regulation", "SOURCEDATE": "2019\/09\/03", "VAL_METHOD": "IMAGERY", "VAL_DATE": "2014\/02\/03", "WEBSITE": "http:\/\/www.parkplazahospital.com", "STATE_ID": "NOT AVAILABLE", "ALT_NAME": "NOT AVAILABLE", "ST_FIPS": "48", "OWNER": "PROPRIETARY", "TTL_STAFF": -999, "BEDS": 444.0, "TRAUMA": "NOT AVAILABLE", "HELIPAD": "N" }, "geometry": { "type": "Point", "coordinates": [ -95.387531896091076, 29.722555670204017 ] } },
{ "type": "Feature", "properties": { "FID": 3764, "ID": "0028177006", "NAME": "TRIUMPH HOSPITAL CENTRAL HOUSTON", "ADDRESS": "105 DREW STREET", "CITY": "HOUSTON", "STATE": "TX", "ZIP": "77006", "ZIP4": "NOT AVAILABLE", "TELEPHONE": "NOT AVAILABLE", "TYPE": "GENERAL ACUTE CARE", "STATUS": "CLOSED", "POPULATION": 40, "COUNTY": "HARRIS", "COUNTYFIPS": "48201", "COUNTRY": "USA", "LATITUDE": 29.748766882000041, "LONGITUDE": -95.382236116999991, "NAICS_CODE": "622110", "NAICS_DESC": "GENERAL MEDICAL AND SURGICAL HOSPITALS", "SOURCE": "http:\/\/www.dshs.state.tx.us\/chs\/hosp\/hosp2.shtm", "SOURCEDATE": "2014\/09\/23", "VAL_METHOD": "IMAGERY\/OTHER", "VAL_DATE": "2014\/02\/12", "WEBSITE": "NOT AVAILABLE", "STATE_ID": "NOT AVAILABLE", "ALT_NAME": "NOT AVAILABLE", "ST_FIPS": "48", "OWNER": "PROPRIETARY", "TTL_STAFF": -999, "BEDS": 40.0, "TRAUMA": "NOT AVAILABLE", "HELIPAD": "N" }, "geometry": { "type": "Point", "coordinates": [ -95.382236117285402, 29.7487668821989 ] } },
{ "type": "Feature", "properties": { "FID": 3793, "ID": "0143777027", "NAME": "WESTSIDE SURGICAL HOSPTIAL", "ADDRESS": "4200 TWELVE OAKS DRIVE", "CITY": "HOUSTON", "STATE": "TX", "ZIP": "77027", "ZIP4": "NOT AVAILABLE", "TELEPHONE": "(713) 621-5010", "TYPE": "GENERAL ACUTE CARE", "STATUS": "OPEN", "POPULATION": 12, "COUNTY": "HARRIS", "COUNTYFIPS": "48201", "COUNTRY": "USA", "LATITUDE": 29.730867641000032, "LONGITUDE": -95.445097112999974, "NAICS_CODE": "622110", "NAICS_DESC": "GENERAL MEDICAL AND SURGICAL HOSPITALS", "SOURCE": "https:\/\/hhs.texas.gov\/doing-business-hhs\/provider-portals\/health-care-facilities-regulation", "SOURCEDATE": "2019\/09\/03", "VAL_METHOD": "IMAGERY\/OTHER", "VAL_DATE": "2014\/12\/09", "WEBSITE": "http:\/\/www.westsidesurgical.net\/", "STATE_ID": "NOT AVAILABLE", "ALT_NAME": "NOT AVAILABLE", "ST_FIPS": "48", "OWNER": "PROPRIETARY", "TTL_STAFF": -999, "BEDS": 12.0, "TRAUMA": "NOT AVAILABLE", "HELIPAD": "N" }, "geometry": { "type": "Point", "coordinates": [ -95.445097112697226, 29.730867641348453 ] } },
{ "type": "Feature", "properties": { "FID": 3824, "ID": "0028377087", "NAME": "PINE VALLEY SPECIALTY HOSPITAL", "ADDRESS": "6160 SOUTH LOOP EAST", "CITY": "HOUSTON", "STATE": "TX", "ZIP": "77087", "ZIP4": "NOT AVAILABLE", "TELEPHONE": "(713) 640-2400", "TYPE": "LONG TERM CARE", "STATUS": "OPEN", "POPULATION": 59, "COUNTY": "HARRIS", "COUNTYFIPS": "48201", "COUNTRY": "USA", "LATITUDE": 29.694738910000069, "LONGITUDE": -95.317596576999961, "NAICS_CODE": "622310", "NAICS_DESC": "SPECIALTY (EXCEPT PSYCHIATRIC AND SUBSTANCE ABUSE) HOSPITALS", "SOURCE": "https:\/\/hhs.texas.gov\/doing-business-hhs\/provider-portals\/health-care-facilities-regulation", "SOURCEDATE": "2019\/09\/03", "VAL_METHOD": "IMAGERY", "VAL_DATE": "2014\/02\/12", "WEBSITE": "http:\/\/www.pinevalleyspecialtyhospital.com\/wp-pine\/", "STATE_ID": "NOT AVAILABLE", "ALT_NAME": "TEXAS SPECIALTY HOSPITAL AT HOUSTON", "ST_FIPS": "48", "OWNER": "PROPRIETARY", "TTL_STAFF": -999, "BEDS": 59.0, "TRAUMA": "NOT AVAILABLE", "HELIPAD": "N" }, "geometry": { "type": "Point", "coordinates": [ -95.317596577086988, 29.694738910165235 ] } },
{ "type": "Feature", "properties": { "FID": 3841, "ID": "0025077004", "NAME": "RIVERSIDE GENERAL HOSPITAL", "ADDRESS": "3204 ENNIS STREET", "CITY": "HOUSTON", "STATE": "TX", "ZIP": "77004", "ZIP4": "NOT AVAILABLE", "TELEPHONE": "NOT AVAILABLE", "TYPE": "PSYCHIATRIC", "STATUS": "CLOSED", "POPULATION": 98, "COUNTY": "HARRIS", "COUNTYFIPS": "48201", "COUNTRY": "USA", "LATITUDE": 29.73091892900004, "LONGITUDE": -95.360852859999966, "NAICS_CODE": "622210", "NAICS_DESC": "HOSPITALS, PSYCHIATRIC (EXCEPT CONVALESCENT)", "SOURCE": "http:\/\/www.dshs.state.tx.us\/chs\/hosp\/hosp2.shtm", "SOURCEDATE": "2014\/09\/23", "VAL_METHOD": "IMAGERY", "VAL_DATE": "2014\/02\/10", "WEBSITE": "http:\/\/www.riversidegeneral.org", "STATE_ID": "NOT AVAILABLE", "ALT_NAME": "NOT AVAILABLE", "ST_FIPS": "48", "OWNER": "NON-PROFIT", "TTL_STAFF": -999, "BEDS": 98.0, "TRAUMA": "NOT AVAILABLE", "HELIPAD": "N" }, "geometry": { "type": "Point", "coordinates": [ -95.360852860112416, 29.730918929053576 ] } },
{ "type": "Feature", "properties": { "FID": 3842, "ID": "0027277021", "NAME": "HARRIS COUNTY PSYCHIATRIC CENTER", "ADDRESS": "2800 SOUTH MACGREGOR WAY", "CITY": "HOUSTON", "STATE": "TX", "ZIP": "77021", "ZIP4": "NOT AVAILABLE", "TELEPHONE": "NOT AVAILABLE", "TYPE": "PSYCHIATRIC", "STATUS": "OPEN", "POPULATION": 16, "COUNTY": "HARRIS", "COUNTYFIPS": "48201", "COUNTRY": "USA", "LATITUDE": 29.712016808000044, "LONGITUDE": -95.374423749999949, "NAICS_CODE": "622210", "NAICS_DESC": "PSYCHIATRIC AND SUBSTANCE ABUSE HOSPITALS", "SOURCE": "https:\/\/hhs.texas.gov\/doing-business-hhs\/provider-portals\/health-care-facilities-regulation", "SOURCEDATE": "2019\/09\/03", "VAL_METHOD": "IMAGERY", "VAL_DATE": "2014\/02\/03", "WEBSITE": "http:\/\/hcpc.uth.tmc.edu\/", "STATE_ID": "NOT AVAILABLE", "ALT_NAME": "NOT AVAILABLE", "ST_FIPS": "48", "OWNER": "GOVERNMENT - DISTRICT\/AUTHORITY", "TTL_STAFF": -999, "BEDS": 16.0, "TRAUMA": "NOT AVAILABLE", "HELIPAD": "N" }, "geometry": { "type": "Point", "coordinates": [ -95.374423750432101, 29.712016808348288 ] } },
{ "type": "Feature", "properties": { "FID": 3869, "ID": "0006677401", "NAME": "FIRST STREET HOSPITAL", "ADDRESS": "4801 BISSONET", "CITY": "BELLAIRE", "STATE": "TX", "ZIP": "77401", "ZIP4": "NOT AVAILABLE", "TELEPHONE": "(713) 275-1111", "TYPE": "SPECIAL", "STATUS": "OPEN", "POPULATION": 19, "COUNTY": "HARRIS", "COUNTYFIPS": "48201", "COUNTRY": "USA", "LATITUDE": 29.709977395000067, "LONGITUDE": -95.462671300999943, "NAICS_CODE": "622310", "NAICS_DESC": "SPECIALTY (EXCEPT PSYCHIATRIC AND SUBSTANCE ABUSE) HOSPITALS", "SOURCE": "https:\/\/hhs.texas.gov\/doing-business-hhs\/provider-portals\/health-care-facilities-regulation", "SOURCEDATE": "2019\/09\/03", "VAL_METHOD": "IMAGERY", "VAL_DATE": "2014\/03\/12", "WEBSITE": "http:\/\/www.firststreethospital.com", "STATE_ID": "NOT AVAILABLE", "ALT_NAME": "FIRST STREET HOSPITAL", "ST_FIPS": "48", "OWNER": "PROPRIETARY", "TTL_STAFF": -999, "BEDS": 19.0, "TRAUMA": "NOT AVAILABLE", "HELIPAD": "Y" }, "geometry": { "type": "Point", "coordinates": [ -95.462671301063139, 29.70997739487278 ] } },
{ "type": "Feature", "properties": { "FID": 4062, "ID": "0029177054", "NAME": "FOUNDATION SURGICAL HOSPITAL OF HOUSTON", "ADDRESS": "7501 FANNIN STREET", "CITY": "HOUSTON", "STATE": "TX", "ZIP": "77054", "ZIP4": "NOT AVAILABLE", "TELEPHONE": "(713) 375-7000", "TYPE": "GENERAL ACUTE CARE", "STATUS": "CLOSED", "POPULATION": 69, "COUNTY": "HARRIS", "COUNTYFIPS": "48201", "COUNTRY": "USA", "LATITUDE": 29.692395762000046, "LONGITUDE": -95.400757360999989, "NAICS_CODE": "622110", "NAICS_DESC": "GENERAL MEDICAL AND SURGICAL HOSPITALS", "SOURCE": "http:\/\/www.dshs.texas.gov\/facilities\/find-a-licensee.aspx", "SOURCEDATE": "2017\/01\/09", "VAL_METHOD": "IMAGERY\/OTHER", "VAL_DATE": "2020\/05\/08", "WEBSITE": "http:\/\/www.foundationhospitals.com\/houston\/", "STATE_ID": "NOT AVAILABLE", "ALT_NAME": "UNIVERSITY GENERAL HOSPITAL", "ST_FIPS": "48", "OWNER": "PROPRIETARY", "TTL_STAFF": -999, "BEDS": 69.0, "TRAUMA": "NOT AVAILABLE", "HELIPAD": "N" }, "geometry": { "type": "Point", "coordinates": [ -95.400757360827825, 29.692395761827253 ] } },
{ "type": "Feature", "properties": { "FID": 4239, "ID": "0191677030", "NAME": "BAYLOR ST LUKES MEDICAL CENTER - MCNAIR CAMPUS", "ADDRESS": "7200 CAMBRIDGE STREET", "CITY": "HOUSTON", "STATE": "TX", "ZIP": "77030", "ZIP4": "NOT AVAILABLE", "TELEPHONE": "(832) 354-1000", "TYPE": "GENERAL ACUTE CARE", "STATUS": "OPEN", "POPULATION": -999, "COUNTY": "HARRIS", "COUNTYFIPS": "48201", "COUNTRY": "USA", "LATITUDE": 29.698989290000043, "LONGITUDE": -95.394063237999944, "NAICS_CODE": "622110", "NAICS_DESC": "GENERAL MEDICAL AND SURGICAL HOSPITALS", "SOURCE": "https:\/\/hhs.texas.gov\/doing-business-hhs\/provider-portals\/health-care-facilities-regulation", "SOURCEDATE": "2019\/09\/03", "VAL_METHOD": "IMAGERY\/OTHER", "VAL_DATE": "2020\/05\/06", "WEBSITE": "https:\/\/www.chistlukeshealth.org\/locations\/baylor-st-lukes-medical-center-mcnair-campus?utm_source=localsearch&utm_medium=facility&utm_campaign=chitexas&utm_term=baylorstlukesmedicalcentermcnaircampus", "STATE_ID": "118", "ALT_NAME": "NOT AVAILABLE", "ST_FIPS": "48", "OWNER": "NON-PROFIT", "TTL_STAFF": -999, "BEDS": 30.0, "TRAUMA": "NOT AVAILABLE", "HELIPAD": "N" }, "geometry": { "type": "Point", "coordinates": [ -95.394063238399752, 29.698989289862535 ] } },
{ "type": "Feature", "properties": { "FID": 4240, "ID": "0186777072", "NAME": "ALTUS HOUSTON HOSPITAL, CELESTIAL HOSPITAL, ODYSSEY HOSPITAL", "ADDRESS": "6011 W SAM HOUSTON PKWY SOUTH", "CITY": "HOUSTON", "STATE": "TX", "ZIP": "77072", "ZIP4": "NOT AVAILABLE", "TELEPHONE": "(713) 773-0556", "TYPE": "GENERAL ACUTE CARE", "STATUS": "OPEN", "POPULATION": -999, "COUNTY": "HARRIS", "COUNTYFIPS": "48201", "COUNTRY": "USA", "LATITUDE": 29.711707510000053, "LONGITUDE": -95.5557089, "NAICS_CODE": "622110", "NAICS_DESC": "GENERAL MEDICAL AND SURGICAL HOSPITALS", "SOURCE": "https:\/\/hhs.texas.gov\/doing-business-hhs\/provider-portals\/health-care-facilities-regulation", "SOURCEDATE": "2019\/09\/03", "VAL_METHOD": "IMAGERY", "VAL_DATE": "2020\/05\/06", "WEBSITE": "NOT AVAILABLE", "STATE_ID": "100407", "ALT_NAME": "NOT AVAILABLE", "ST_FIPS": "48", "OWNER": "PROPRIETARY", "TTL_STAFF": -999, "BEDS": 10.0, "TRAUMA": "NOT AVAILABLE", "HELIPAD": "N" }, "geometry": { "type": "Point", "coordinates": [ -95.555708899656139, 29.711707510147271 ] } },
{ "type": "Feature", "properties": { "FID": 4552, "ID": "0025377002", "NAME": "ST. JOSEPH MEDICAL CENTER", "ADDRESS": "1401 ST JOSEPH PARKWAY", "CITY": "HOUSTON", "STATE": "TX", "ZIP": "77002", "ZIP4": "NOT AVAILABLE", "TELEPHONE": "(713) 756-5007", "TYPE": "GENERAL ACUTE CARE", "STATUS": "OPEN", "POPULATION": 744, "COUNTY": "HARRIS", "COUNTYFIPS": "48201", "COUNTRY": "USA", "LATITUDE": 29.74811612700006, "LONGITUDE": -95.366148138999961, "NAICS_CODE": "622110", "NAICS_DESC": "GENERAL MEDICAL AND SURGICAL HOSPITALS", "SOURCE": "https:\/\/hhs.texas.gov\/doing-business-hhs\/provider-portals\/health-care-facilities-regulation", "SOURCEDATE": "2019\/09\/03", "VAL_METHOD": "IMAGERY", "VAL_DATE": "2014\/03\/12", "WEBSITE": "http:\/\/www.sjmctx.com", "STATE_ID": "NOT AVAILABLE", "ALT_NAME": "NOT AVAILABLE", "ST_FIPS": "48", "OWNER": "PROPRIETARY", "TTL_STAFF": -999, "BEDS": 744.0, "TRAUMA": "LEVEL III", "HELIPAD": "Y" }, "geometry": { "type": "Point", "coordinates": [ -95.366148138556454, 29.748116127109181 ] } },
{ "type": "Feature", "properties": { "FID": 5587, "ID": "0014977030", "NAME": "MICHAEL E. DEBAKEY VA MEDICAL CENTER", "ADDRESS": "2002 HOLCOMBE BLVD", "CITY": "HOUSTON", "STATE": "TX", "ZIP": "77030", "ZIP4": "NOT AVAILABLE", "TELEPHONE": "(713) 791-1414", "TYPE": "MILITARY", "STATUS": "OPEN", "POPULATION": -999, "COUNTY": "HARRIS", "COUNTYFIPS": "48201", "COUNTRY": "USA", "LATITUDE": 29.699765749000051, "LONGITUDE": -95.38877344499997, "NAICS_CODE": "622110", "NAICS_DESC": "GENERAL MEDICAL AND SURGICAL HOSPITALS", "SOURCE": "https:\/\/www.va.gov\/directory\/guide\/allstate.asp", "SOURCEDATE": "2019\/09\/26", "VAL_METHOD": "IMAGERY\/OTHER", "VAL_DATE": "2015\/05\/29", "WEBSITE": "http:\/\/www.houston.va.gov\/", "STATE_ID": "NOT AVAILABLE", "ALT_NAME": "NOT AVAILABLE", "ST_FIPS": "48", "OWNER": "GOVERNMENT - FEDERAL", "TTL_STAFF": -999, "BEDS": 349.0, "TRAUMA": "NOT AVAILABLE", "HELIPAD": "Y" }, "geometry": { "type": "Point", "coordinates": [ -95.38877344506885, 29.699765748834764 ] } },
{ "type": "Feature", "properties": { "FID": 6443, "ID": "0027377074", "NAME": "WEST OAKS HOSPITAL", "ADDRESS": "6500 HORNWOOD DRIVE", "CITY": "HOUSTON", "STATE": "TX", "ZIP": "77074", "ZIP4": "NOT AVAILABLE", "TELEPHONE": "(713) 995-0909", "TYPE": "PSYCHIATRIC", "STATUS": "OPEN", "POPULATION": 144, "COUNTY": "HARRIS", "COUNTYFIPS": "48201", "COUNTRY": "USA", "LATITUDE": 29.709251365000057, "LONGITUDE": -95.49808399799997, "NAICS_CODE": "622210", "NAICS_DESC": "PSYCHIATRIC AND SUBSTANCE ABUSE HOSPITALS", "SOURCE": "https:\/\/hhs.texas.gov\/doing-business-hhs\/provider-portals\/health-care-facilities-regulation", "SOURCEDATE": "2019\/09\/03", "VAL_METHOD": "IMAGERY", "VAL_DATE": "2014\/02\/10", "WEBSITE": "http:\/\/www.westoakshospital.com", "STATE_ID": "NOT AVAILABLE", "ALT_NAME": "NOT AVAILABLE", "ST_FIPS": "48", "OWNER": "PROPRIETARY", "TTL_STAFF": -999, "BEDS": 144.0, "TRAUMA": "NOT AVAILABLE", "HELIPAD": "N" }, "geometry": { "type": "Point", "coordinates": [ -95.498083998084198, 29.709251364859462 ] } },
{ "type": "Feature", "properties": { "FID": 6445, "ID": "0027777054", "NAME": "SUN BEHAVIORAL HOUSTON", "ADDRESS": "7601 FANNIN STREET", "CITY": "HOUSTON", "STATE": "TX", "ZIP": "77054", "ZIP4": "NOT AVAILABLE", "TELEPHONE": "(713) 796-2273", "TYPE": "PSYCHIATRIC", "STATUS": "OPEN", "POPULATION": 148, "COUNTY": "HARRIS", "COUNTYFIPS": "48201", "COUNTRY": "USA", "LATITUDE": 29.690588431000037, "LONGITUDE": -95.401081204999969, "NAICS_CODE": "622210", "NAICS_DESC": "PSYCHIATRIC AND SUBSTANCE ABUSE HOSPITALS", "SOURCE": "https:\/\/hhs.texas.gov\/doing-business-hhs\/provider-portals\/health-care-facilities-regulation", "SOURCEDATE": "2019\/09\/03", "VAL_METHOD": "IMAGERY\/OTHER", "VAL_DATE": "2014\/02\/10", "WEBSITE": "http:\/\/www.sunhouston.com\/", "STATE_ID": "NOT AVAILABLE", "ALT_NAME": "INTRACARE MEDICAL CENTER HOSPITAL", "ST_FIPS": "48", "OWNER": "PROPRIETARY", "TTL_STAFF": -999, "BEDS": 148.0, "TRAUMA": "NOT AVAILABLE", "HELIPAD": "N" }, "geometry": { "type": "Point", "coordinates": [ -95.401081205284385, 29.690588431066232 ] } },
{ "type": "Feature", "properties": { "FID": 6454, "ID": "0142877035", "NAME": "THE MENNINGER CLINIC", "ADDRESS": "12301 SOUTH MAIN STREET", "CITY": "HOUSTON", "STATE": "TX", "ZIP": "77035", "ZIP4": "6207", "TELEPHONE": "NOT AVAILABLE", "TYPE": "PSYCHIATRIC", "STATUS": "OPEN", "POPULATION": 120, "COUNTY": "HARRIS", "COUNTYFIPS": "48201", "COUNTRY": "USA", "LATITUDE": 29.646370139000055, "LONGITUDE": -95.457580188999941, "NAICS_CODE": "622210", "NAICS_DESC": "PSYCHIATRIC AND SUBSTANCE ABUSE HOSPITALS", "SOURCE": "https:\/\/hhs.texas.gov\/doing-business-hhs\/provider-portals\/health-care-facilities-regulation", "SOURCEDATE": "2019\/09\/03", "VAL_METHOD": "IMAGERY\/OTHER", "VAL_DATE": "2014\/12\/09", "WEBSITE": "http:\/\/www.menningerclinic.com\/", "STATE_ID": "NOT AVAILABLE", "ALT_NAME": "NOT AVAILABLE", "ST_FIPS": "48", "OWNER": "NON-PROFIT", "TTL_STAFF": -999, "BEDS": 120.0, "TRAUMA": "NOT AVAILABLE", "HELIPAD": "N" }, "geometry": { "type": "Point", "coordinates": [ -95.457580189021925, 29.646370139214767 ] } },
{ "type": "Feature", "properties": { "FID": 6481, "ID": "0028477004", "NAME": "UGH PAIN AND SPINE", "ADDRESS": "5445 LA BRANCH STREET", "CITY": "HOUSTON", "STATE": "TX", "ZIP": "77004", "ZIP4": "NOT AVAILABLE", "TELEPHONE": "(713) 528-6800", "TYPE": "SPECIAL", "STATUS": "OPEN", "POPULATION": 7, "COUNTY": "HARRIS", "COUNTYFIPS": "48201", "COUNTRY": "USA", "LATITUDE": 29.724179524000078, "LONGITUDE": -95.383959002999973, "NAICS_CODE": "622310", "NAICS_DESC": "SPECIALTY (EXCEPT PSYCHIATRIC AND SUBSTANCE ABUSE) HOSPITALS", "SOURCE": "https:\/\/hhs.texas.gov\/doing-business-hhs\/provider-portals\/health-care-facilities-regulation", "SOURCEDATE": "2019\/09\/03", "VAL_METHOD": "IMAGERY\/OTHER", "VAL_DATE": "2014\/02\/03", "WEBSITE": "http:\/\/www.scasurgery.com", "STATE_ID": "NOT AVAILABLE", "ALT_NAME": "NOT AVAILABLE", "ST_FIPS": "48", "OWNER": "PROPRIETARY", "TTL_STAFF": -999, "BEDS": 7.0, "TRAUMA": "NOT AVAILABLE", "HELIPAD": "N" }, "geometry": { "type": "Point", "coordinates": [ -95.383959003355343, 29.724179524322608 ] } },
{ "type": "Feature", "properties": { "FID": 7566, "ID": "0028577002", "NAME": "CHRISTUS DUBUIS HOSPITAL OF HOUSTON", "ADDRESS": "1919 LA BRANCH STREET, 7GWS", "CITY": "HOUSTON", "STATE": "TX", "ZIP": "77002", "ZIP4": "NOT AVAILABLE", "TELEPHONE": "(713) 756-8660", "TYPE": "GENERAL ACUTE CARE", "STATUS": "OPEN", "POPULATION": 30, "COUNTY": "HARRIS", "COUNTYFIPS": "48201", "COUNTRY": "USA", "LATITUDE": 29.746846918000074, "LONGITUDE": -95.365896889999988, "NAICS_CODE": "622110", "NAICS_DESC": "GENERAL MEDICAL AND SURGICAL HOSPITALS", "SOURCE": "https:\/\/hhs.texas.gov\/doing-business-hhs\/provider-portals\/health-care-facilities-regulation", "SOURCEDATE": "2019\/09\/03", "VAL_METHOD": "IMAGERY\/OTHER", "VAL_DATE": "2020\/05\/08", "WEBSITE": "http:\/\/www.christusdubuis.org\/", "STATE_ID": "NOT AVAILABLE", "ALT_NAME": "NOT AVAILABLE", "ST_FIPS": "48", "OWNER": "NON-PROFIT", "TTL_STAFF": -999, "BEDS": 30.0, "TRAUMA": "NOT AVAILABLE", "HELIPAD": "N" }, "geometry": { "type": "Point", "coordinates": [ -95.365896889652959, 29.746846917989728 ] } }
]
}
